{"countries":[{"lat":50.7086,"lng":10.6348,"zoom":5,"name":"nextbike Germany","hotline":"+493069205046","domain":"de","country":"DE","country_name":"Germany","terms":"http:\/\/www.nextbike.de\/media\/AGB_Maerz2017_de-en.pdf","policy":null,"website":"https:\/\/www.nextbike.de\/","show_bike_types":false,"show_bike_type_groups":false,"show_free_racks":false,"booked_bikes":0,"set_point_bikes":2733,"available_bikes":1437,"cities":[{"uid":1,"lat":51.3415,"lng":12.3625,"zoom":14,"maps_icon":null,"alias":"leipzig","break":false,"name":"Leipzig","num_places":"101","refresh_rate":"1115","bounds":{"south_west":{"lat":51.3012,"lng":12.2872},"north_east":{"lat":51.4021,"lng":12.4371}},"booked_bikes":0,"set_point_bikes":669,"available_bikes":281,"places":[{"uid":28,"lat":51.340505159701,"lng":12.368813753128,"bike":false,"name":"Gottschedstr. \/ Bosestr.","address":null,"spot":true,"number":4013,"bikes":5,"bike_racks":0,"free_racks":0,"maintenance":false,"terminal_type":"free","bike_numbers":"05553,05611,10185,20449,10870","bike_types":{"5":3,"4":1,"15":1}},{"uid":72,"lat":51.339077567821,"lng":12.381554245949,"bike":false,"name":"Augustusplatz \/ Oper","address":null,"spot":true,"number":4003,"bikes":3,"bike_racks":0,"free_racks":0,"maintenance":false,"terminal_type":"free","bike_numbers":"10214,10354,20448","bike_types":{"4":1,"5":1,"15":1}},{"uid":125,"lat":51.339637215946,"lng":12.373212575912,"bike":false,"name":"Thomaskirchhof \/ Taxistand","address":null,"spot":true,"number":4006,"bikes":3,"bike_racks":0,"free_racks":0,"maintenance":false,"terminal_type":"free","bike_numbers":"05570,31541,10464","bike_types":{"5":1,"undefined":2}},{"uid":128,"lat":51.337076853681,"lng":12.372853159904,"bike":false,"name":"Burgplatz \/ Stadthaus","address":null,"spot":true,"number":4011,"bikes":2,"bike_racks":0,"free_racks":0,"maintenance":false,"terminal_type":"free","bike_numbers":"10489,05837","bike_types":{"4":1,"5":1}},{"uid":801,"lat":51.320789736538,"lng":12.373319864273,"bike":false,"name":"Karl-Liebknecht-Str. \/ Kurt-Eisner-Str. \/ B\u00e4cker","address":null,"spot":true,"number":4014,"bikes":4,"bike_racks":0,"free_racks":0,"maintenance":false,"terminal_type":"free","bike_numbers":"10409,31516,05784,07017","bike_types":{"5":2,"4":2}},{"uid":1615,"lat":51.343068681395,"lng":12.365182042122,"bike":false,"name":"Jahnallee \/ Thomasiusstr. \/ Denkmal","address":null,"spot":true,"number":4007,"bikes":3,"bike_racks":0,"free_racks":0,"maintenance":false,"terminal_type":"free","bike_numbers":"05731,03161,20460","bike_types":{"5":1,"4":1,"15":1}},{"uid":1727,"lat":51.324537727221,"lng":12.373394966125,"bike":false,"name":"S\u00fcdplatz (LVB Mobilit\u00e4tsstation 10) ","address":null,"spot":true,"number":4005,"bikes":2,"bike_racks":0,"free_racks":0,"maintenance":false,"terminal_type":"free","bike_numbers":"10318,05799","bike_types":{"5":2}},{"uid":2031,"lat":51.332032789785,"lng":12.367199063301,"bike":false,"name":"Grassistr. \/ Beethovenstr.","address":null,"spot":true,"number":4021,"bikes":2,"bike_racks":0,"free_racks":0,"maintenance":false,"terminal_type":"free","bike_numbers":"10832,13769","bike_types":{"4":1,"15":1}},{"uid":8308,"lat":51.326334508593,"lng":12.357473373413,"bike":false,"name":"Galopprennbahn Eingang","address":null,"spot":true,"number":4034,"bikes":1,"bike_racks":0,"free_racks":0,"maintenance":false,"terminal_type":"free","bike_numbers":"10592","bike_types":{"5":1}},{"uid":8371,"lat":51.344515,"lng":12.370848,"bike":false,"name":"Goerdelerring (LVB Mobilit\u00e4tsstation 5) ","address":null,"spot":true,"number":4015,"bikes":0,"bike_racks":0,"free_racks":0,"maintenance":false,"terminal_type":"free","bike_numbers":null,"bike_types":null},{"uid":8407,"lat":51.348004313463,"lng":12.37136721611,"bike":false,"name":"Zoo \/ Br\u00fccke","address":null,"spot":true,"number":4035,"bikes":4,"bike_racks":0,"free_racks":0,"maintenance":false,"terminal_type":"free","bike_numbers":"10501,02268,05821,10878","bike_types":{"4":3,"5":1}},{"uid":8408,"lat":51.340712927583,"lng":12.378051280975,"bike":false,"name":"Nikolaikirche \/ Alte Nikolaischule","address":null,"spot":true,"number":4009,"bikes":4,"bike_racks":0,"free_racks":0,"maintenance":false,"terminal_type":"free","bike_numbers":"10605,31505,05775,10362","bike_types":{"4":2,"5":2}},{"uid":8678,"lat":51.341316119323,"lng":12.365198135376,"bike":false,"name":"Gottschedstr. \/ Thomasiusstr.","address":null,"spot":true,"number":4018,"bikes":5,"bike_racks":0,"free_racks":0,"maintenance":false,"terminal_type":"free","bike_numbers":"10223,05556,05534,05617,20504","bike_types":{"5":5,"4":5,"15":4}},{"uid":9520,"lat":51.3289859734,"lng":12.346637248993,"bike":false,"name":"K\u00f6nneritzstr. \/ Anton-Bruckner-Allee","address":null,"spot":true,"number":4010,"bikes":1,"bike_racks":0,"free_racks":0,"maintenance":true,"terminal_type":"free","bike_numbers":"10748","bike_types":{"4":1}},{"uid":9889,"lat":51.336611013233,"lng":12.374773621559,"bike":false,"name":"Markgrafenstr. \/ LVB Servicecenter (LVB Mobilit\u00e4tsstation 1) ","address":null,"spot":true,"number":4047,"bikes":4,"bike_racks":0,"free_racks":0,"maintenance":false,"terminal_type":"free","bike_numbers":"10271,05629,10387,10625","bike_types":{"5":4}},{"uid":10054,"lat":51.339664025266,"lng":12.370948791504,"bike":false,"name":"Dittrichring \/ Gottschedstr.","address":null,"spot":true,"number":4040,"bikes":2,"bike_racks":0,"free_racks":0,"maintenance":false,"terminal_type":"free","bike_numbers":"05785,07097","bike_types":{"4":1,"undefined":1}},{"uid":10780,"lat":51.33287406425,"lng":12.373260855675,"bike":false,"name":"M\u00fcnzgasse \/ Peterssteinweg \/ Mensa","address":null,"spot":true,"number":4023,"bikes":4,"bike_racks":0,"free_racks":0,"maintenance":false,"terminal_type":"free","bike_numbers":"05564,20527,10475,10227","bike_types":{"5":2,"undefined":2}},{"uid":10882,"lat":51.326143436307,"lng":12.340414524078,"bike":false,"name":"Industriestr. \/ Karlbr\u00fccke","address":null,"spot":true,"number":4008,"bikes":0,"bike_racks":0,"free_racks":0,"maintenance":false,"terminal_type":"free","bike_numbers":null,"bike_types":null},{"uid":11373,"lat":51.338842982743,"lng":12.363170385361,"bike":false,"name":"Westplatz ","address":null,"spot":true,"number":4029,"bikes":1,"bike_racks":0,"free_racks":0,"maintenance":false,"terminal_type":"free","bike_numbers":"20517","bike_types":{"5":1}},{"uid":14311,"lat":51.3448345796,"lng":12.422270178795,"bike":false,"name":"Eisenbahnstr. \/ B\u00fclowstr.","address":null,"spot":true,"number":4025,"bikes":4,"bike_racks":0,"free_racks":0,"maintenance":false,"terminal_type":"free","bike_numbers":"10337,10885,10429,05892","bike_types":{"5":3,"4":1}},{"uid":15091,"lat":51.327692104543,"lng":12.388458251953,"bike":false,"name":"Philipp-Rosenthal-Str. \/ Johannisallee","address":null,"spot":true,"number":4048,"bikes":3,"bike_racks":0,"free_racks":0,"maintenance":false,"terminal_type":"free","bike_numbers":"10306,10368,05778","bike_types":{"4":2,"5":1}},{"uid":16337,"lat":51.343658438648,"lng":12.378786206245,"bike":false,"name":"Hauptbahnhof \/ Mobilit\u00e4tszentrale LVB","address":null,"spot":true,"number":4024,"bikes":5,"bike_racks":0,"free_racks":0,"maintenance":false,"terminal_type":"free","bike_numbers":"10556,10589,10392,10749,10315","bike_types":{"4":5,"5":4,"15":1}},{"uid":18268,"lat":51.349679559923,"lng":12.376093268394,"bike":false,"name":"Hotel Mercure art \/ Eutritzscher Str. \/ Ernst-Pinckert-Str.","address":null,"spot":true,"number":4051,"bikes":2,"bike_racks":0,"free_racks":0,"maintenance":false,"terminal_type":"free","bike_numbers":"10522,10208","bike_types":{"4":2}},{"uid":19780,"lat":51.332414884483,"lng":12.395158410072,"bike":false,"name":"Ostplatz (LVB Mobilit\u00e4tsstation 11) ","address":null,"spot":true,"number":4033,"bikes":3,"bike_racks":0,"free_racks":0,"maintenance":false,"terminal_type":"free","bike_numbers":"05674,05766,20455","bike_types":{"5":1,"4":1,"15":1}},{"uid":26721,"lat":51.346134666098,"lng":12.375433444977,"bike":false,"name":"WestIn Hotel \/ Taxistand","address":null,"spot":true,"number":4017,"bikes":2,"bike_racks":0,"free_racks":0,"maintenance":false,"terminal_type":"free","bike_numbers":"05637,31519","bike_types":{"5":2}},{"uid":26928,"lat":51.31945,"lng":12.341541,"bike":false,"name":"K\u00f6nneritzstr. \/ Oeserstr. (LVB Mobilit\u00e4tsstation 39) ","address":null,"spot":true,"number":4026,"bikes":1,"bike_racks":0,"free_racks":0,"maintenance":false,"terminal_type":"free","bike_numbers":"10070","bike_types":{"5":1}},{"uid":32021,"lat":51.343812578497,"lng":12.38149523735,"bike":false,"name":"Hauptbahnhof \/ Osthalle","address":null,"spot":true,"number":4042,"bikes":3,"bike_racks":0,"free_racks":0,"maintenance":false,"terminal_type":"free","bike_numbers":"10326,10275,10431","bike_types":{"5":3}},{"uid":32097,"lat":51.344576568357,"lng":12.379628419876,"bike":false,"name":"Hauptbahnhof \/ Westhalle","address":null,"spot":true,"number":4046,"bikes":5,"bike_racks":0,"free_racks":0,"maintenance":false,"terminal_type":"free","bike_numbers":"05597,05575,05676,10680,05865","bike_types":{"5":4,"4":1}},{"uid":32663,"lat":51.345638761166,"lng":12.379167079926,"bike":false,"name":"Hauptbahnhof \/ Westseite (LVB Mobilit\u00e4tststion 4)","address":null,"spot":true,"number":4055,"bikes":5,"bike_racks":0,"free_racks":0,"maintenance":false,"terminal_type":"free","bike_numbers":"31499,10011,10439,10599,20438","bike_types":{"5":2,"4":2,"15":1}},{"uid":32710,"lat":51.343970068677,"lng":12.383174300194,"bike":false,"name":"Hauptbahnhof \/ Ostseite","address":null,"spot":true,"number":4067,"bikes":4,"bike_racks":0,"free_racks":0,"maintenance":false,"terminal_type":"free","bike_numbers":"05528,05518,02342,05752","bike_types":{"5":3,"4":1}},{"uid":40712,"lat":51.356132036956,"lng":12.364232540131,"bike":false,"name":"Poetenweg \/ Gohliser Schl\u00f6sschen ","address":null,"spot":true,"number":4054,"bikes":1,"bike_racks":0,"free_racks":0,"maintenance":false,"terminal_type":"free","bike_numbers":"05793","bike_types":{"4":1}},{"uid":41466,"lat":51.340438137603,"lng":12.366764545441,"bike":false,"name":"K\u00e4the-Kollwitz-Str. \/ Thomasiusstr.","address":null,"spot":true,"number":4043,"bikes":5,"bike_racks":0,"free_racks":0,"maintenance":false,"terminal_type":"free","bike_numbers":"10751,10875,05635,10577,10593","bike_types":{"4":3,"5":2}},{"uid":41763,"lat":51.339245127857,"lng":12.395523190498,"bike":false,"name":"Gerichtsweg \/ Dresdner Str. \/ Uhr","address":null,"spot":true,"number":4044,"bikes":0,"bike_racks":0,"free_racks":0,"maintenance":false,"terminal_type":"free","bike_numbers":null,"bike_types":null},{"uid":42446,"lat":51.331610470888,"lng":12.334336638451,"bike":false,"name":"Schaub\u00fchne Lindenfels ","address":null,"spot":true,"number":4041,"bikes":2,"bike_racks":0,"free_racks":0,"maintenance":false,"terminal_type":"free","bike_numbers":"10113,05844","bike_types":{"5":2}},{"uid":43753,"lat":51.337696849812,"lng":12.339931726456,"bike":false,"name":"Stra\u00dfenbhf. Angerbr\u00fccke (LVB Mobilit\u00e4tsstation 14) ","address":null,"spot":true,"number":4001,"bikes":4,"bike_racks":0,"free_racks":0,"maintenance":false,"terminal_type":"free","bike_numbers":"05576,05693,20451,10393","bike_types":{"5":2,"15":1,"14":1}},{"uid":52804,"lat":51.33994217103,"lng":12.37419962883,"bike":false,"name":"Marktplatz \/ Breuninger","address":null,"spot":true,"number":4045,"bikes":5,"bike_racks":0,"free_racks":0,"maintenance":false,"terminal_type":"free","bike_numbers":"10746,05503,10139,10187,05639","bike_types":{"4":2,"5":5}},{"uid":52806,"lat":51.339422740826,"lng":12.379826903343,"bike":false,"name":"Augustusplatz \/ Vapiano","address":null,"spot":true,"number":4032,"bikes":3,"bike_racks":0,"free_racks":0,"maintenance":false,"terminal_type":"free","bike_numbers":"10719,05787,10558","bike_types":{"4":3}},{"uid":66512,"lat":51.342281209596,"lng":12.375224232674,"bike":false,"name":"Katharinenstr. \/ Tourist-Information","address":null,"spot":true,"number":4053,"bikes":5,"bike_racks":0,"free_racks":0,"maintenance":false,"terminal_type":"free","bike_numbers":"10529,05533,10202,10311,05650","bike_types":{"4":3,"5":5,"undefined":2}},{"uid":70158,"lat":51.402083818804,"lng":12.389788627624,"bike":false,"name":"NH Hotel","address":null,"spot":true,"number":4049,"bikes":3,"bike_racks":0,"free_racks":0,"maintenance":false,"terminal_type":"free","bike_numbers":"10045,10837,10790","bike_types":{"5":2,"4":1}},{"uid":72048,"lat":51.339848338913,"lng":12.376720905304,"bike":false,"name":"Reichsstr. \/ Grimmaische Str.","address":null,"spot":true,"number":4050,"bikes":5,"bike_racks":0,"free_racks":0,"maintenance":false,"terminal_type":"free","bike_numbers":"10551,05548,05776,05853,10825","bike_types":{"4":3,"5":2}},{"uid":104022,"lat":51.335954136644,"lng":12.375251054764,"bike":false,"name":"Wilhelm-Leuschner-Platz \/ S-Bahnausgang Nord (R\u00fcckseite)","address":null,"spot":true,"number":4063,"bikes":0,"bike_racks":0,"free_racks":0,"maintenance":false,"terminal_type":"free","bike_numbers":null,"bike_types":null},{"uid":122685,"lat":51.340790002526,"lng":12.376468777657,"bike":false,"name":"Hotel Steigenberger \/ Salzg\u00e4sschen","address":null,"spot":true,"number":4031,"bikes":5,"bike_racks":0,"free_racks":0,"maintenance":false,"terminal_type":"free","bike_numbers":"10607,10544,10633,05524,10485","bike_types":{"4":5,"5":5,"undefined":1}},{"uid":126405,"lat":51.31187110346,"lng":12.368942499161,"bike":false,"name":"Hotel Leonardo","address":null,"spot":true,"number":4030,"bikes":3,"bike_racks":0,"free_racks":0,"maintenance":false,"terminal_type":"free","bike_numbers":"20574,10287,10716","bike_types":{"4":1,"5":1,"14":1}},{"uid":142940,"lat":51.345122746283,"lng":12.357349991798,"bike":false,"name":"Waldstr. \/ Arena City Hotel","address":null,"spot":true,"number":4065,"bikes":1,"bike_racks":0,"free_racks":0,"maintenance":false,"terminal_type":"free","bike_numbers":"10834","bike_types":{"4":1}},{"uid":190246,"lat":51.343078734139,"lng":12.376565337181,"bike":false,"name":"Am Hallischen Tor \/ Br\u00fchl","address":null,"spot":true,"number":4028,"bikes":2,"bike_racks":0,"free_racks":0,"maintenance":false,"terminal_type":"free","bike_numbers":"05743,07037","bike_types":{"4":2}},{"uid":196461,"lat":51.343192665084,"lng":12.372681498528,"bike":false,"name":"Richard-Wagner-Platz \/ Gro\u00dfe Fleischergasse","address":null,"spot":true,"number":4022,"bikes":1,"bike_racks":0,"free_racks":0,"maintenance":false,"terminal_type":"free","bike_numbers":"10189","bike_types":{"5":1}},{"uid":231249,"lat":51.343108892358,"lng":12.374698519707,"bike":false,"name":"Br\u00fchl \/ Katharinenstr.","address":null,"spot":true,"number":4057,"bikes":2,"bike_racks":0,"free_racks":0,"maintenance":false,"terminal_type":"free","bike_numbers":"20450,20447","bike_types":{"15":2}},{"uid":251219,"lat":51.339963,"lng":12.382677,"bike":false,"name":"Hauptsitz LVB \/ Georgiring (LVB Mobilit\u00e4tsstation 2) ","address":null,"spot":true,"number":4036,"bikes":1,"bike_racks":0,"free_racks":0,"maintenance":false,"terminal_type":"free","bike_numbers":"10498","bike_types":{"4":1}},{"uid":266933,"lat":51.341014524445,"lng":12.374382019043,"bike":false,"name":"Marktplatz \/ S-Bahn-Rolltreppe \/ Hainstr.","address":null,"spot":true,"number":4012,"bikes":1,"bike_racks":0,"free_racks":0,"maintenance":false,"terminal_type":"free","bike_numbers":"05643","bike_types":{"5":1}},{"uid":266936,"lat":51.344077295723,"lng":12.379156351089,"bike":false,"name":"Hauptbahnhof \/ Unterf\u00fchrung","address":null,"spot":true,"number":4064,"bikes":4,"bike_racks":0,"free_racks":0,"maintenance":false,"terminal_type":"free","bike_numbers":"03224,10463,05804,10046","bike_types":{"4":1,"5":2,"undefined":1}},{"uid":377116,"lat":51.337227664322,"lng":12.378115653992,"bike":false,"name":"Schillerstr. \/ Universit\u00e4tsstr. \/ Mensa","address":null,"spot":true,"number":4068,"bikes":2,"bike_racks":0,"free_racks":0,"maintenance":false,"terminal_type":"free","bike_numbers":"05855,10882","bike_types":{"5":1,"4":1}},{"uid":411699,"lat":51.337415,"lng":12.333697,"bike":false,"name":"Lindenauer Markt (LVB Mobilit\u00e4tsstation 21) ","address":null,"spot":true,"number":4038,"bikes":5,"bike_racks":0,"free_racks":0,"maintenance":false,"terminal_type":"free","bike_numbers":"07088,03120,10087,05667,10853","bike_types":{"5":4,"14":2}},{"uid":415491,"lat":51.337733,"lng":12.381646,"bike":false,"name":"Augustusplatz (LVB Mobilit\u00e4tsstation 3) ","address":null,"spot":true,"number":4071,"bikes":0,"bike_racks":0,"free_racks":0,"maintenance":false,"terminal_type":"free","bike_numbers":null,"bike_types":null},{"uid":415518,"lat":51.33038,"lng":12.379928,"bike":false,"name":"Riemannstr. (LVB Mobilit\u00e4tsstation 7) ","address":null,"spot":true,"number":4073,"bikes":2,"bike_racks":0,"free_racks":0,"maintenance":false,"terminal_type":"free","bike_numbers":"10654,10720","bike_types":{"4":2}},{"uid":415534,"lat":51.341708,"lng":12.357817,"bike":false,"name":"Willmar-Schwabe-Str. \/ Jahnallee (LVB Mobilit\u00e4tsstation 9) ","address":null,"spot":true,"number":4074,"bikes":0,"bike_racks":0,"free_racks":0,"maintenance":false,"terminal_type":"free","bike_numbers":null,"bike_types":null},{"uid":415556,"lat":51.357471,"lng":12.377097,"bike":false,"name":"Delitzscher Str. \/ G.-Schumann-Str. (LVB Mobilit\u00e4tsstation 12) ","address":null,"spot":true,"number":4075,"bikes":0,"bike_racks":0,"free_racks":0,"maintenance":false,"terminal_type":"free","bike_numbers":null,"bike_types":null},{"uid":415559,"lat":51.363,"lng":12.373595,"bike":false,"name":"S-Bhf. Gohlis (LVB Mobilit\u00e4tsstation 13) ","address":null,"spot":true,"number":4076,"bikes":4,"bike_racks":0,"free_racks":0,"maintenance":false,"terminal_type":"free","bike_numbers":"31544,10243,10632,10141","bike_types":{"4":2,"5":2}},{"uid":415568,"lat":51.311662,"lng":12.372993,"bike":false,"name":"Scheffelstr. \/ Karl-Liebknecht-Str. (LVB Mobilit\u00e4tsstation 16) ","address":null,"spot":true,"number":4077,"bikes":3,"bike_racks":0,"free_racks":0,"maintenance":false,"terminal_type":"free","bike_numbers":"05559,05515,10121","bike_types":{"5":2,"4":1}},{"uid":415578,"lat":51.324111,"lng":12.400456,"bike":false,"name":"Siegismundstr. (LVB Mobilit\u00e4tsstation 17) ","address":null,"spot":true,"number":4079,"bikes":2,"bike_racks":0,"free_racks":0,"maintenance":false,"terminal_type":"free","bike_numbers":"10418,10683","bike_types":{"5":1,"undefined":1}},{"uid":415587,"lat":51.3515,"lng":12.40706,"bike":false,"name":"Stannebeinplatz (LVB Mobilit\u00e4tsstation 18) ","address":null,"spot":true,"number":4081,"bikes":0,"bike_racks":0,"free_racks":0,"maintenance":false,"terminal_type":"free","bike_numbers":null,"bike_types":null},{"uid":415600,"lat":51.366441,"lng":12.349743,"bike":false,"name":"Huygensstr. \/ Georg-Schumann-Str. (LVB Mobilit\u00e4tsstation 20)","address":null,"spot":true,"number":4085,"bikes":2,"bike_racks":0,"free_racks":0,"maintenance":false,"terminal_type":"free","bike_numbers":"05640,05590","bike_types":{"5":1,"4":1}},{"uid":415612,"lat":51.301198,"lng":12.384442,"bike":false,"name":"Bornaische Str. \/ Klemmstr. (LVB Mobilit\u00e4tsstation 22) ","address":null,"spot":true,"number":4052,"bikes":2,"bike_racks":0,"free_racks":0,"maintenance":false,"terminal_type":"free","bike_numbers":"03117,20555","bike_types":{"5":2}},{"uid":415617,"lat":51.37549,"lng":12.378652,"bike":false,"name":"Virchowstr. (LVB Mobilit\u00e4tsstation 23) ","address":null,"spot":true,"number":4060,"bikes":0,"bike_racks":0,"free_racks":0,"maintenance":false,"terminal_type":"free","bike_numbers":null,"bike_types":null},{"uid":415622,"lat":51.347631,"lng":12.313274,"bike":false,"name":"Rathaus Leutzsch (LVB Mobilit\u00e4tsstation 24) ","address":null,"spot":true,"number":4062,"bikes":1,"bike_racks":0,"free_racks":0,"maintenance":false,"terminal_type":"free","bike_numbers":"10116","bike_types":{"5":1}},{"uid":415630,"lat":51.322889,"lng":12.28723,"bike":false,"name":"Sch\u00f6nauer Str. \/ L\u00fctzner Str. (LVB Mobilit\u00e4tsstation 25)  ","address":null,"spot":true,"number":4066,"bikes":5,"bike_racks":0,"free_racks":0,"maintenance":false,"terminal_type":"free","bike_numbers":"05530,05642,05599,20571,20453","bike_types":{"5":3,"4":1,"15":1}},{"uid":426322,"lat":51.368511815409,"lng":12.38609790802,"bike":false,"name":"Eutritzscher Markt (LVB Mobilit\u00e4tsstation 19) ","address":null,"spot":true,"number":4083,"bikes":1,"bike_racks":0,"free_racks":0,"maintenance":false,"terminal_type":"free","bike_numbers":"05538","bike_types":{"5":1}},{"uid":439266,"lat":51.307961110927,"lng":12.437092065811,"bike":false,"name":"Herzzentrum \/ Helios Park-Klinikum","address":null,"spot":true,"number":4020,"bikes":5,"bike_racks":0,"free_racks":0,"maintenance":false,"terminal_type":"free","bike_numbers":"10035,10588,10496,10548,31440","bike_types":{"5":1,"4":3,"undefined":2}},{"uid":529111,"lat":51.339821529701,"lng":12.375717759132,"bike":false,"name":"Zeitgeschichtliches Forum","address":null,"spot":true,"number":4108,"bikes":2,"bike_racks":0,"free_racks":0,"maintenance":false,"terminal_type":"free","bike_numbers":"10258,10197","bike_types":{"5":2}},{"uid":676203,"lat":51.343380315434,"lng":12.321011424065,"bike":false,"name":"Ev. Diakonissenkrankenhaus Leipzig","address":null,"spot":true,"number":4086,"bikes":3,"bike_racks":0,"free_racks":0,"maintenance":false,"terminal_type":null,"bike_numbers":"10713,10528,10611","bike_types":{"4":2,"5":1}},{"uid":683555,"lat":51.334955398081,"lng":12.388383150101,"bike":false,"name":"Hotel Mercure \/ Stephanstr.","address":null,"spot":true,"number":4004,"bikes":4,"bike_racks":0,"free_racks":0,"maintenance":false,"terminal_type":"free","bike_numbers":"10376,05678,05890,05847","bike_types":{"5":4}},{"uid":683557,"lat":51.342167276386,"lng":12.359125614166,"bike":false,"name":"Waldplatz \/ Brunnen","address":null,"spot":true,"number":4016,"bikes":0,"bike_racks":0,"free_racks":0,"maintenance":false,"terminal_type":null,"bike_numbers":null,"bike_types":null},{"uid":683562,"lat":51.332113231039,"lng":12.341465950012,"bike":false,"name":"Karl-Heine-Str. \/ Erich-Zeigner-Allee","address":null,"spot":true,"number":4037,"bikes":0,"bike_racks":0,"free_racks":0,"maintenance":false,"terminal_type":null,"bike_numbers":null,"bike_types":null},{"uid":683564,"lat":51.339617108946,"lng":12.378045916557,"bike":false,"name":"Lehmanns Buchhandlung","address":null,"spot":true,"number":4070,"bikes":3,"bike_racks":0,"free_racks":0,"maintenance":false,"terminal_type":null,"bike_numbers":"05565,20501,05808","bike_types":{"5":3}},{"uid":1016537,"lat":51.327252,"lng":12.32248,"bike":false,"name":"S-Bhf. Plagwitz ","address":null,"spot":true,"number":4087,"bikes":2,"bike_racks":0,"free_racks":0,"maintenance":false,"terminal_type":"free","bike_numbers":"10348,03332","bike_types":{"5":2}},{"uid":1047912,"lat":51.331258535502,"lng":12.358095645905,"bike":false,"name":"Musikpavillion","address":null,"spot":true,"number":4027,"bikes":0,"bike_racks":0,"free_racks":0,"maintenance":false,"terminal_type":null,"bike_numbers":null,"bike_types":null},{"uid":1120472,"lat":51.315069940448,"lng":12.372987270355,"bike":false,"name":"Karl-Liebknecht-Str. \/ Richard-Lehmann-Str.","address":null,"spot":true,"number":4002,"bikes":4,"bike_racks":0,"free_racks":0,"maintenance":false,"terminal_type":"free","bike_numbers":"10827,10244,03340,10856","bike_types":{"4":2,"5":1,"undefined":1}},{"uid":1120513,"lat":51.340116430167,"lng":12.351508140564,"bike":false,"name":"Jahnallee \/ Festwiese","address":null,"spot":true,"number":4056,"bikes":0,"bike_racks":0,"free_racks":0,"maintenance":false,"terminal_type":"free","bike_numbers":null,"bike_types":null},{"uid":1167216,"lat":51.320508122005,"lng":12.385765314102,"bike":false,"name":"S-Bhf. MDR (Kurt-Eisner-Str. \/ Semmelweisstr.)","address":null,"spot":true,"number":4082,"bikes":1,"bike_racks":0,"free_racks":0,"maintenance":false,"terminal_type":"free","bike_numbers":"10836","bike_types":{"4":1}},{"uid":1200717,"lat":51.351415050663,"lng":12.432006597519,"bike":false,"name":"UFZ Leipzig \/ Permoserstr.","address":null,"spot":true,"number":4088,"bikes":5,"bike_racks":0,"free_racks":0,"maintenance":false,"terminal_type":"free","bike_numbers":"10600,05656,31535,10247,05851","bike_types":{"4":1,"5":5,"undefined":1}},{"uid":1218734,"lat":51.332348,"lng":12.373923,"bike":false,"name":"M\u00fcnzgasse \/ LVZ (LVB Mobilit\u00e4tsstation 26)","address":null,"spot":true,"number":4069,"bikes":0,"bike_racks":0,"free_racks":0,"maintenance":false,"terminal_type":"free","bike_numbers":null,"bike_types":null},{"uid":1407891,"lat":51.351662972546,"lng":12.373234033585,"bike":false,"name":"Nordplatz (LVB Mobilit\u00e4tsstation 8)","address":null,"spot":true,"number":4103,"bikes":3,"bike_racks":0,"free_racks":0,"maintenance":false,"terminal_type":null,"bike_numbers":"10435,31528,31444","bike_types":{"5":2,"4":1}},{"uid":1532219,"lat":51.340049407501,"lng":12.36987054348,"bike":false,"name":"Gottschedstr. \/ Zentralstr.","address":null,"spot":true,"number":4104,"bikes":3,"bike_racks":0,"free_racks":0,"maintenance":false,"terminal_type":null,"bike_numbers":"05704,05690,05801","bike_types":{"5":3}},{"uid":1547734,"lat":51.331778058217,"lng":12.382192611694,"bike":false,"name":"Liebigstr. 16 \/ Uni-Klinikum","address":null,"spot":true,"number":4109,"bikes":4,"bike_racks":0,"free_racks":0,"maintenance":false,"terminal_type":"free","bike_numbers":"10299,05607,10186,10213","bike_types":{"5":3,"14":1}},{"uid":2261448,"lat":51.330293213148,"lng":12.329878807068,"bike":false,"name":"Leipzig International School (K\u00f6nig-Albert-Br\u00fccke)","address":null,"spot":true,"number":4039,"bikes":3,"bike_racks":0,"free_racks":0,"maintenance":false,"terminal_type":"free","bike_numbers":"05653,05600,10685","bike_types":{"5":2,"4":1}},{"uid":2261478,"lat":51.324470681778,"lng":12.344292998314,"bike":false,"name":"Leipzig International School (Eingang K\u00f6nneritzstr. 47)","address":null,"spot":true,"number":4080,"bikes":5,"bike_racks":0,"free_racks":0,"maintenance":false,"terminal_type":"free","bike_numbers":"10754,05512,10447,20505,10628","bike_types":{"4":1,"5":4}},{"uid":2261490,"lat":51.325268516198,"lng":12.34438419342,"bike":false,"name":"Leipzig International School (K\u00f6nneritzstr. \/ Alfred-Frank-Str.)","address":null,"spot":true,"number":4089,"bikes":4,"bike_racks":0,"free_racks":0,"maintenance":false,"terminal_type":"free","bike_numbers":"10325,05673,31548,10454","bike_types":{"5":2,"4":2}},{"uid":2679897,"lat":51.345427664871,"lng":12.392079234123,"bike":false,"name":"Friedrich-List-Platz","address":null,"spot":true,"number":4061,"bikes":5,"bike_racks":0,"free_racks":0,"maintenance":false,"terminal_type":"free","bike_numbers":"10545,05602,10510,10441,31145","bike_types":{"4":1,"5":5}},{"uid":2777225,"lat":51.32482937376,"lng":12.334105968475,"bike":false,"name":"Zschochersche Str. \/ Markranst\u00e4dter Str.","address":null,"spot":true,"number":4105,"bikes":5,"bike_racks":0,"free_racks":0,"maintenance":false,"terminal_type":"free","bike_numbers":"05547,10115,10260,10231,10624","bike_types":{"5":4,"4":1}}]},{"uid":8,"lat":50.1072,"lng":8.66375,"zoom":12,"maps_icon":null,"alias":"frankfurt","break":false,"name":"Frankfurt","num_places":"41","refresh_rate":"1682","bounds":{"south_west":{"lat":49.9846,"lng":8.3673},"north_east":{"lat":50.1407,"lng":8.7415}},"booked_bikes":0,"set_point_bikes":245,"available_bikes":125,"places":[{"uid":46,"lat":50.099624222884,"lng":8.6850491166115,"bike":false,"name":"4260 - S\u00fcdbahnhof \/ Hedderichstr.","address":null,"spot":true,"number":4260,"bikes":3,"bike_racks":0,"free_racks":0,"maintenance":false,"terminal_type":"free","bike_numbers":"06176,06144,06276","bike_types":{"5":1,"4":1,"undefined":1}},{"uid":896,"lat":50.113158466165,"lng":8.6787593364716,"bike":false,"name":"4245 - Hauptwache \/ Sport Arena","address":null,"spot":true,"number":4245,"bikes":0,"bike_racks":0,"free_racks":0,"maintenance":false,"terminal_type":"free","bike_numbers":null,"bike_types":null},{"uid":1572,"lat":50.114837185404,"lng":8.6725741624832,"bike":false,"name":"4244 - Fressgasse \/ Neue Mainzer Str.","address":null,"spot":true,"number":4244,"bikes":4,"bike_racks":0,"free_racks":0,"maintenance":false,"terminal_type":"free","bike_numbers":"06170,03013,03012,03011","bike_types":{"5":1,"4":3}},{"uid":1640,"lat":50.123099203895,"lng":8.6926692724228,"bike":false,"name":"4250 - Friedberger Platz \/ Caf\u00e9 Harveys","address":null,"spot":true,"number":4250,"bikes":3,"bike_racks":0,"free_racks":0,"maintenance":false,"terminal_type":"free","bike_numbers":"06020,06191,06266","bike_types":{"5":2,"undefined":1}},{"uid":2304,"lat":50.110791647259,"lng":8.6818331480026,"bike":false,"name":"4246 - R\u00f6mer \/ Touristeninformation","address":null,"spot":true,"number":4246,"bikes":5,"bike_racks":0,"free_racks":0,"maintenance":false,"terminal_type":"free","bike_numbers":"06027,06032,06189,03031,03017","bike_types":{"5":3,"4":3}},{"uid":2612,"lat":50.115349733444,"lng":8.6711740493774,"bike":false,"name":"4243 - Opernplatz \/ Bockenheimer Landstr.","address":null,"spot":true,"number":4243,"bikes":4,"bike_racks":0,"free_racks":0,"maintenance":false,"terminal_type":"free","bike_numbers":"06005,06182,06160,06166","bike_types":{"5":4}},{"uid":3364,"lat":50.122769025681,"lng":8.7014132738113,"bike":false,"name":"4251 - H\u00f6henstra\u00dfe \/ Berger Str.","address":null,"spot":true,"number":4251,"bikes":3,"bike_racks":0,"free_racks":0,"maintenance":false,"terminal_type":"free","bike_numbers":"06015,06228,06243","bike_types":{"5":3}},{"uid":7374,"lat":50.120323572383,"lng":8.6956572532654,"bike":false,"name":"4249 - Merianplatz \/ Berger Str.","address":null,"spot":true,"number":4249,"bikes":4,"bike_racks":0,"free_racks":0,"maintenance":false,"terminal_type":"free","bike_numbers":"06072,06212,06058,06277","bike_types":{"5":3,"4":1}},{"uid":7378,"lat":50.120120638859,"lng":8.650381565094,"bike":false,"name":"4258 - Bockenheimer Warte \/ Caf\u00e9 Extrablatt","address":null,"spot":true,"number":4258,"bikes":4,"bike_racks":0,"free_racks":0,"maintenance":false,"terminal_type":"free","bike_numbers":"06014,03167,03156,06148","bike_types":{"5":1,"4":3}},{"uid":7634,"lat":50.105376421023,"lng":8.6780592799187,"bike":false,"name":"4262 - Schaumainkai \/ Schweizer Str.","address":null,"spot":true,"number":4262,"bikes":0,"bike_racks":0,"free_racks":0,"maintenance":false,"terminal_type":"free","bike_numbers":null,"bike_types":null},{"uid":7644,"lat":50.122731192615,"lng":8.6454087495804,"bike":false,"name":"4259 - Leipziger Str. \/ Markgrafenstr.","address":null,"spot":true,"number":4259,"bikes":5,"bike_racks":0,"free_racks":0,"maintenance":false,"terminal_type":"free","bike_numbers":"06161,06128,03051,06131,06264","bike_types":{"5":3,"4":1,"undefined":1}},{"uid":7647,"lat":50.101915034473,"lng":8.6811143159866,"bike":false,"name":"4261 - Schweizer Platz \/ Diesterwegstr.","address":null,"spot":true,"number":4261,"bikes":1,"bike_racks":0,"free_racks":0,"maintenance":false,"terminal_type":"free","bike_numbers":"06140","bike_types":{"4":1}},{"uid":7648,"lat":50.115556127078,"lng":8.6985218524933,"bike":false,"name":"4248 - Zoo \/ Alfred-Brehm-Platz","address":null,"spot":true,"number":4248,"bikes":4,"bike_racks":0,"free_racks":0,"maintenance":false,"terminal_type":"free","bike_numbers":"06067,06031,06234,03166","bike_types":{"5":3,"4":1}},{"uid":17232,"lat":50.110266149431,"lng":8.5952192544937,"bike":false,"name":"4290 - Hotel Ramada Hotel Messe","address":null,"spot":true,"number":4290,"bikes":1,"bike_racks":0,"free_racks":0,"maintenance":false,"terminal_type":"free","bike_numbers":"06162","bike_types":{"5":1}},{"uid":29169,"lat":50.109150630018,"lng":8.674698472023,"bike":false,"name":"4242 - Willy-Brandt-Platz \/ Neue Mainzer Str. ","address":null,"spot":true,"number":4242,"bikes":4,"bike_racks":0,"free_racks":0,"maintenance":false,"terminal_type":"free","bike_numbers":"06063,00036,06231,03069","bike_types":{"5":3,"undefined":1}},{"uid":42801,"lat":50.111947550177,"lng":8.6541259288788,"bike":false,"name":"4241 - Messe \/ Festhalle \/ Eingang U-Bahn","address":null,"spot":true,"number":4241,"bikes":1,"bike_racks":0,"free_racks":0,"maintenance":false,"terminal_type":"free","bike_numbers":"20581","bike_types":null},{"uid":44537,"lat":50.106979722073,"lng":8.7414801120758,"bike":false,"name":"4287 - Hotel Macrander","address":null,"spot":true,"number":4287,"bikes":3,"bike_racks":0,"free_racks":0,"maintenance":false,"terminal_type":"free","bike_numbers":"03030,02283,03164","bike_types":{"4":3}},{"uid":52745,"lat":50.114840625342,"lng":8.6875087022781,"bike":false,"name":"4247 - Konstabler Wache \/ Conrad-Elektronik","address":null,"spot":true,"number":4247,"bikes":4,"bike_racks":0,"free_racks":0,"maintenance":false,"terminal_type":"free","bike_numbers":"06009,03057,06237,06284","bike_types":{"5":4}},{"uid":67722,"lat":50.091312551956,"lng":8.6857706308365,"bike":false,"name":"4288 - Hotel Derag","address":null,"spot":true,"number":4288,"bikes":2,"bike_racks":0,"free_racks":0,"maintenance":false,"terminal_type":"free","bike_numbers":"06073,03151","bike_types":{"5":1,"4":1}},{"uid":121962,"lat":50.10739602108,"lng":8.6643612384796,"bike":false,"name":"4240 - Hauptbahnhof \/ Vorplatz","address":null,"spot":true,"number":4240,"bikes":5,"bike_racks":0,"free_racks":0,"maintenance":false,"terminal_type":"free","bike_numbers":"06011,06061,06233,06193,06134","bike_types":{"5":4,"4":3,"undefined":2}},{"uid":121963,"lat":50.128873515056,"lng":8.6925029754639,"bike":false,"name":"4252 - Nibelungenplatz \/ Friedberger Landstr.","address":null,"spot":true,"number":4252,"bikes":4,"bike_racks":0,"free_racks":0,"maintenance":false,"terminal_type":"free","bike_numbers":"06142,06135,03336,03317","bike_types":{"4":4}},{"uid":122146,"lat":50.112945182048,"lng":8.6763989925385,"bike":false,"name":"4238 - Ro\u00dfmarkt \/ Junghofstr. (Goetheplatz)","address":null,"spot":true,"number":4238,"bikes":3,"bike_racks":0,"free_racks":0,"maintenance":false,"terminal_type":"free","bike_numbers":"03025,03009,06271","bike_types":{"4":2,"undefined":1}},{"uid":122155,"lat":50.104099934817,"lng":8.6648279428482,"bike":false,"name":"4239 - Baseler Platz \/ Baseler Stra\u00dfe \/ Gutleutstr.","address":null,"spot":true,"number":4239,"bikes":1,"bike_racks":0,"free_racks":0,"maintenance":false,"terminal_type":"free","bike_numbers":"03135","bike_types":{"5":1}},{"uid":122156,"lat":50.116852946722,"lng":8.6791777610779,"bike":false,"name":"4237 - Eschenheimer Turm \/ Schillerstr. \/ Taubenstr.","address":null,"spot":true,"number":4237,"bikes":4,"bike_racks":0,"free_racks":0,"maintenance":false,"terminal_type":"free","bike_numbers":"06230,06119,77835,06263","bike_types":{"5":2,"4":1,"undefined":1}},{"uid":122689,"lat":50.1141999,"lng":8.6180641,"bike":false,"name":"4292 - Hotel Accor \/ Ibis F-City Messe \/ Leonardo-da-Vinci-Allee 40","address":null,"spot":true,"number":4292,"bikes":4,"bike_racks":0,"free_racks":0,"maintenance":false,"terminal_type":"free","bike_numbers":"06229,03146,06147,06240","bike_types":{"5":4}},{"uid":122692,"lat":50.1017481,"lng":8.553437,"bike":false,"name":"4291 - Hotel Lindner Congress \/ Bolongarostr 100","address":null,"spot":true,"number":4291,"bikes":3,"bike_racks":0,"free_racks":0,"maintenance":false,"terminal_type":"free","bike_numbers":"06149,00302,03162","bike_types":{"4":3}},{"uid":125751,"lat":50.111452166629,"lng":8.7095618247986,"bike":false,"name":"4297 - Hotel B&B Frankfurt City-Ost \/ Hanauer Landstr. 117","address":null,"spot":true,"number":4297,"bikes":3,"bike_racks":0,"free_racks":0,"maintenance":false,"terminal_type":"free","bike_numbers":"03128,06079,06200","bike_types":{"5":3}},{"uid":151886,"lat":50.107175830321,"lng":8.6726224422455,"bike":false,"name":"4294 - Hotel Adina Apartment Frankfurt \/ Neue Oper \/ Wilhelm-Leuschner-Str 6","address":null,"spot":true,"number":4294,"bikes":2,"bike_racks":0,"free_racks":0,"maintenance":false,"terminal_type":"free","bike_numbers":"06172,06282","bike_types":{"5":1,"4":1}},{"uid":212843,"lat":50.108579529067,"lng":8.6695110797882,"bike":false,"name":"4286 - Hotel Ramada City \/ Weserstr. \/ Kaiserstr.","address":null,"spot":true,"number":4286,"bikes":4,"bike_racks":0,"free_racks":0,"maintenance":false,"terminal_type":"free","bike_numbers":"06227,06117,06184,06238","bike_types":{"5":4}},{"uid":222069,"lat":50.112597733307,"lng":8.6528170108795,"bike":false,"name":"4236 - Messe Turm","address":null,"spot":true,"number":4236,"bikes":3,"bike_racks":18,"free_racks":7,"maintenance":false,"terminal_type":"character","bike_numbers":"03123,02323,06280","bike_types":{"5":1,"4":2}},{"uid":278856,"lat":50.112611493701,"lng":8.6671507358551,"bike":false,"name":"4235 - Trianon","address":null,"spot":true,"number":4235,"bikes":2,"bike_racks":13,"free_racks":4,"maintenance":false,"terminal_type":"character","bike_numbers":"06236,06122","bike_types":{"5":2}},{"uid":352024,"lat":50.110660918387,"lng":8.701177239418,"bike":false,"name":"4285 - Sonnemannstra\u00dfe \/ Windeckstra\u00dfe","address":null,"spot":true,"number":4285,"bikes":4,"bike_racks":0,"free_racks":0,"maintenance":false,"terminal_type":"free","bike_numbers":"06080,06095,06137,03140","bike_types":{"5":3,"4":1}},{"uid":353585,"lat":50.117076532766,"lng":8.6659866571426,"bike":false,"name":"4257 - Bockenheimer Landstr. \/ Liebigstr.","address":null,"spot":true,"number":4257,"bikes":3,"bike_racks":0,"free_racks":0,"maintenance":false,"terminal_type":"free","bike_numbers":"03015,03157,77836","bike_types":{"4":3}},{"uid":706050,"lat":50.13609128399,"lng":8.6640501022339,"bike":false,"name":"USCC Haltestelle Platenstra\u00dfe","address":null,"spot":true,"number":4273,"bikes":2,"bike_racks":0,"free_racks":0,"maintenance":false,"terminal_type":"free","bike_numbers":"06232,06268","bike_types":{"5":2}},{"uid":706056,"lat":50.135929678403,"lng":8.6668235063553,"bike":false,"name":"USCC Jakob-Leisler Stra\u00dfe","address":null,"spot":true,"number":4274,"bikes":4,"bike_racks":0,"free_racks":0,"maintenance":false,"terminal_type":"free","bike_numbers":"06192,03019,03150,02319","bike_types":{"5":2,"4":2}},{"uid":706061,"lat":50.133539915042,"lng":8.6681270599365,"bike":false,"name":"USCC Plieninger Stra\u00dfe","address":null,"spot":true,"number":4275,"bikes":3,"bike_racks":0,"free_racks":0,"maintenance":false,"terminal_type":"free","bike_numbers":"06046,06261,06285","bike_types":{"5":2,"undefined":1}},{"uid":706063,"lat":50.140695094739,"lng":8.6933344602585,"bike":false,"name":"US Konsulat Gie\u00dfener stra\u00dfe","address":null,"spot":true,"number":4276,"bikes":3,"bike_racks":0,"free_racks":0,"maintenance":false,"terminal_type":"free","bike_numbers":"06110,03039,03144","bike_types":{"5":3}},{"uid":1991242,"lat":50.108744667392,"lng":8.6549735069275,"bike":false,"name":"4295 - Hotel Adina Apartment Frankfurt \/ Osloer Stra\u00dfe","address":null,"spot":true,"number":4295,"bikes":4,"bike_racks":0,"free_racks":0,"maintenance":false,"terminal_type":"free","bike_numbers":"06038,06257,06060,06188","bike_types":{"5":4}},{"uid":2913514,"lat":50.096206296966,"lng":8.6607885360718,"bike":false,"name":"Uniklinikum","address":null,"spot":true,"number":4278,"bikes":2,"bike_racks":0,"free_racks":0,"maintenance":false,"terminal_type":"free","bike_numbers":"06098,06159","bike_types":{"5":1,"4":1}}]},{"uid":42,"lat":52.1268,"lng":11.6342,"zoom":14,"maps_icon":null,"alias":"magdeburg","break":false,"name":"Magdeburg","num_places":"22","refresh_rate":"2252","bounds":{"south_west":{"lat":52.1071,"lng":11.5974},"north_east":{"lat":52.1436,"lng":11.6533}},"booked_bikes":0,"set_point_bikes":71,"available_bikes":54,"places":[{"uid":33,"lat":52.139915138248,"lng":11.640052199364,"bike":false,"name":"Campus Tower Universit\u00e4t Magdeburg (Universit\u00e4tsplatz 1)","address":null,"spot":true,"number":4207,"bikes":0,"bike_racks":0,"free_racks":0,"maintenance":false,"terminal_type":null,"bike_numbers":null,"bike_types":null},{"uid":271,"lat":52.143579354027,"lng":11.653237938881,"bike":false,"name":"sleep & go Hotel Magdeburg","address":null,"spot":true,"number":4204,"bikes":3,"bike_racks":0,"free_racks":0,"maintenance":false,"terminal_type":null,"bike_numbers":"07080,07024,07092","bike_types":{"5":1,"4":1,"undefined":1}},{"uid":1531,"lat":52.128285100395,"lng":11.631828546524,"bike":false,"name":"Jugendherberge Magdeburg (Leiterstra\u00dfe 10)","address":null,"spot":true,"number":4202,"bikes":3,"bike_racks":0,"free_racks":0,"maintenance":false,"terminal_type":null,"bike_numbers":"07005,07019,07000","bike_types":{"4":3}},{"uid":7531,"lat":52.1071114302,"lng":11.643780469894,"bike":false,"name":"M\u00fcckenwirt Biergarten (An der Elbe 14)","address":null,"spot":true,"number":4208,"bikes":2,"bike_racks":0,"free_racks":0,"maintenance":false,"terminal_type":null,"bike_numbers":"07045,07002","bike_types":{"4":1,"undefined":1}},{"uid":7532,"lat":52.130372935533,"lng":11.628427505493,"bike":false,"name":"Hauptbahnhof Magdeburg (Vorplatz)","address":null,"spot":true,"number":4209,"bikes":4,"bike_racks":0,"free_racks":0,"maintenance":false,"terminal_type":null,"bike_numbers":"07061,07095,07040,07073","bike_types":{"5":3,"4":1}},{"uid":7536,"lat":52.131028245317,"lng":11.637412905693,"bike":false,"name":"Tourist-Information Magdeburg (Ernst-Reuter-Allee 12)","address":null,"spot":true,"number":4211,"bikes":0,"bike_racks":0,"free_racks":0,"maintenance":false,"terminal_type":null,"bike_numbers":null,"bike_types":null},{"uid":7537,"lat":52.120430143993,"lng":11.628030538559,"bike":false,"name":"Hasselbachplatz (Liebig-Lounge)","address":null,"spot":true,"number":4214,"bikes":5,"bike_racks":0,"free_racks":0,"maintenance":false,"terminal_type":null,"bike_numbers":"07015,07091,07032,07076,07020","bike_types":{"4":3,"5":2}},{"uid":9920,"lat":52.120973613229,"lng":11.638984680176,"bike":false,"name":"MDR Funkhaus \/ Stadtpark","address":null,"spot":true,"number":4217,"bikes":3,"bike_racks":0,"free_racks":0,"maintenance":false,"terminal_type":null,"bike_numbers":"07025,07054,07047","bike_types":{"4":3}},{"uid":12097,"lat":52.12736958347,"lng":11.634060144424,"bike":false,"name":"Am Hundertwasserhaus","address":null,"spot":true,"number":4219,"bikes":2,"bike_racks":0,"free_racks":0,"maintenance":false,"terminal_type":null,"bike_numbers":"07023,07018","bike_types":{"4":2}},{"uid":12205,"lat":52.129500271863,"lng":11.628009080887,"bike":false,"name":"Hotel - INTER City (am Hbf)","address":null,"spot":true,"number":4221,"bikes":3,"bike_racks":0,"free_racks":0,"maintenance":false,"terminal_type":null,"bike_numbers":"07068,07022,07021","bike_types":{"5":1,"4":2}},{"uid":12878,"lat":52.125367236294,"lng":11.631817817688,"bike":false,"name":"Domplatz (Breiter Weg)","address":null,"spot":true,"number":4206,"bikes":0,"bike_racks":0,"free_racks":0,"maintenance":false,"terminal_type":null,"bike_numbers":null,"bike_types":null},{"uid":59615,"lat":52.12993825237,"lng":11.635444164276,"bike":false,"name":"Allee Center\/ Ecke Ulrichhaus","address":null,"spot":true,"number":4215,"bikes":5,"bike_racks":0,"free_racks":0,"maintenance":false,"terminal_type":null,"bike_numbers":"07077,07029,07011,07028,07039","bike_types":{"5":2,"4":5}},{"uid":94304,"lat":52.12659236729,"lng":11.612323522568,"bike":false,"name":"Lessingstra\u00dfe \/ Winckelmannstra\u00dfe","address":null,"spot":true,"number":4222,"bikes":2,"bike_racks":0,"free_racks":0,"maintenance":false,"terminal_type":null,"bike_numbers":"07026,07071","bike_types":{"4":1,"5":1}},{"uid":106832,"lat":52.132579216503,"lng":11.647245883942,"bike":false,"name":"Am Petrif\u00f6rder \/ Wei\u00dfe Flotte Magdeburg","address":null,"spot":true,"number":4224,"bikes":4,"bike_racks":0,"free_racks":0,"maintenance":false,"terminal_type":null,"bike_numbers":"07050,07031,07016,07014","bike_types":{"4":3,"undefined":1}},{"uid":126422,"lat":52.109048705344,"lng":11.597421169281,"bike":false,"name":"Hotel - Plaza \/ Halberst\u00e4dter Stra\u00dfe","address":null,"spot":true,"number":4228,"bikes":0,"bike_racks":0,"free_racks":0,"maintenance":false,"terminal_type":null,"bike_numbers":null,"bike_types":null},{"uid":126431,"lat":52.132954602688,"lng":11.610413789749,"bike":false,"name":"Hotel - Best Western \/ Goethestra\u00dfe","address":null,"spot":true,"number":4226,"bikes":1,"bike_racks":0,"free_racks":0,"maintenance":false,"terminal_type":null,"bike_numbers":"07063","bike_types":{"4":1}},{"uid":207380,"lat":52.131024952327,"lng":11.639370918274,"bike":false,"name":"Rathaus, Alter Markt","address":null,"spot":true,"number":4223,"bikes":1,"bike_racks":0,"free_racks":0,"maintenance":false,"terminal_type":null,"bike_numbers":"07049","bike_types":{"4":1}},{"uid":219897,"lat":52.11771269841,"lng":11.640615463257,"bike":false,"name":"Stadtpark - Aussichtsturm","address":null,"spot":true,"number":4225,"bikes":5,"bike_racks":0,"free_racks":0,"maintenance":false,"terminal_type":null,"bike_numbers":"07065,07069,07086,07089,07033","bike_types":{"5":5,"4":3}},{"uid":236643,"lat":52.130366349457,"lng":11.638072729111,"bike":false,"name":"Allee Center \/Ernst-Reuter-Allee","address":null,"spot":true,"number":4227,"bikes":2,"bike_racks":0,"free_racks":0,"maintenance":false,"terminal_type":null,"bike_numbers":"07062,07058","bike_types":{"5":1,"14":1}}]},{"uid":43,"lat":53.5506,"lng":9.99052,"zoom":13,"maps_icon":null,"alias":"hamburg","break":false,"name":"Hamburg","num_places":"53","refresh_rate":"1507","bounds":{"south_west":{"lat":53.5409,"lng":9.9147},"north_east":{"lat":53.6613,"lng":10.0558}},"booked_bikes":0,"set_point_bikes":198,"available_bikes":148,"places":[{"uid":1420,"lat":53.554535533933,"lng":9.9911212921143,"bike":false,"name":"Neuer Jungfernstieg","address":null,"spot":true,"number":2813,"bikes":3,"bike_racks":0,"free_racks":0,"maintenance":false,"terminal_type":"free","bike_numbers":"02136,02070,02554","bike_types":{"5":3}},{"uid":1422,"lat":53.560691929808,"lng":9.9892973899841,"bike":false,"name":"Bahnhof Dammtor \/ Ausgang Dag-Hammarskjoeld-Platz","address":null,"spot":true,"number":2821,"bikes":3,"bike_racks":0,"free_racks":0,"maintenance":false,"terminal_type":"free","bike_numbers":"02325,02192,10041","bike_types":{"5":2,"4":1}},{"uid":13713,"lat":53.570517363842,"lng":9.9952056258917,"bike":false,"name":"Mittelweg \/ Ecke Milchstra\u00dfe","address":null,"spot":true,"number":2814,"bikes":3,"bike_racks":0,"free_racks":0,"maintenance":false,"terminal_type":"free","bike_numbers":"02130,02152,02054","bike_types":{"5":2,"4":1}},{"uid":13715,"lat":53.540919453058,"lng":9.9935245513916,"bike":false,"name":"HafenCity \/ Marco-Polo-Terrassen","address":null,"spot":true,"number":2828,"bikes":1,"bike_racks":0,"free_racks":0,"maintenance":false,"terminal_type":"free","bike_numbers":"02214","bike_types":{"5":1}},{"uid":13717,"lat":53.551794821121,"lng":9.9942755699158,"bike":false,"name":"Jungfernstieg \/ Ecke Reesendamm","address":null,"spot":true,"number":2840,"bikes":3,"bike_racks":0,"free_racks":0,"maintenance":false,"terminal_type":"free","bike_numbers":"02129,02288,10626","bike_types":{"5":2,"4":1}},{"uid":14294,"lat":53.547106515957,"lng":9.9720293283463,"bike":false,"name":"Jugendherberge Stintfang","address":null,"spot":true,"number":2803,"bikes":4,"bike_racks":0,"free_racks":0,"maintenance":false,"terminal_type":"free","bike_numbers":"02187,02190,02260,02082","bike_types":{"5":2,"4":2}},{"uid":18404,"lat":53.590537105743,"lng":9.9870228767395,"bike":false,"name":"Marie-Jonas-Platz","address":null,"spot":true,"number":2849,"bikes":2,"bike_racks":0,"free_racks":0,"maintenance":false,"terminal_type":"free","bike_numbers":"02209,02162","bike_types":{"5":2}},{"uid":19315,"lat":53.591734295363,"lng":10.055783987045,"bike":false,"name":"B&B Hotel Hamburg Nord","address":null,"spot":true,"number":2801,"bikes":3,"bike_racks":0,"free_racks":0,"maintenance":false,"terminal_type":"free","bike_numbers":"02224,02198,02293","bike_types":{"5":2,"4":1}},{"uid":24434,"lat":53.554325206448,"lng":10.007772445679,"bike":false,"name":"Hauptbahnhof Nord \/ Ecke Kirchenallee","address":null,"spot":true,"number":2825,"bikes":0,"bike_racks":0,"free_racks":0,"maintenance":false,"terminal_type":"free","bike_numbers":null,"bike_types":null},{"uid":26609,"lat":53.572798169271,"lng":9.9888736009598,"bike":false,"name":"U-Bahn-Station Hallerstra\u00dfe","address":null,"spot":true,"number":2848,"bikes":1,"bike_racks":0,"free_racks":0,"maintenance":false,"terminal_type":"free","bike_numbers":"02217","bike_types":{"5":1}},{"uid":40688,"lat":53.564155305325,"lng":9.9659353494644,"bike":false,"name":"S-Bahn-Station Sternschanze","address":null,"spot":true,"number":2818,"bikes":4,"bike_racks":0,"free_racks":0,"maintenance":false,"terminal_type":"free","bike_numbers":"02125,10095,02289,10193","bike_types":{"5":2,"4":1,"undefined":1}},{"uid":44524,"lat":53.555504301578,"lng":9.9999403953552,"bike":false,"name":"Ballindamm \/ Ecke Lombardsbr\u00fccke","address":null,"spot":true,"number":2831,"bikes":0,"bike_racks":0,"free_racks":0,"maintenance":false,"terminal_type":"free","bike_numbers":null,"bike_types":null},{"uid":48334,"lat":53.581856466584,"lng":10.011420249939,"bike":false,"name":"M\u00fchlenkamp \/ Preystra\u00dfe ","address":null,"spot":true,"number":2843,"bikes":4,"bike_racks":0,"free_racks":0,"maintenance":false,"terminal_type":"free","bike_numbers":"02280,02261,02241,02056","bike_types":{"4":3,"5":1}},{"uid":55206,"lat":53.567446364446,"lng":10.001066923142,"bike":false,"name":"Alsterufer \/ Ecke Alte Rabenstra\u00dfe","address":null,"spot":true,"number":2851,"bikes":3,"bike_racks":0,"free_racks":0,"maintenance":false,"terminal_type":"free","bike_numbers":"02199,02306,10083","bike_types":{"5":2,"4":1}},{"uid":55215,"lat":53.573677329575,"lng":10.002257823944,"bike":false,"name":"Alsterufer \/ Cliff Restaurant","address":null,"spot":true,"number":2823,"bikes":4,"bike_racks":0,"free_racks":0,"maintenance":false,"terminal_type":"free","bike_numbers":"02242,10111,02059,02067","bike_types":{"5":3,"4":1}},{"uid":55217,"lat":53.580506126235,"lng":10.00039100647,"bike":false,"name":"Fernsicht \/ Ecke Agnesstra\u00dfe","address":null,"spot":true,"number":2837,"bikes":5,"bike_racks":0,"free_racks":0,"maintenance":false,"terminal_type":"free","bike_numbers":"10123,02284,02160,02208,02273","bike_types":{"5":4,"4":1}},{"uid":66311,"lat":53.557205964727,"lng":10.003931522369,"bike":false,"name":"Atlantic \/ Holzdamm","address":null,"spot":true,"number":2805,"bikes":2,"bike_racks":0,"free_racks":0,"maintenance":false,"terminal_type":"free","bike_numbers":"02253,02099","bike_types":{"5":2}},{"uid":67700,"lat":53.545190886286,"lng":10.018029212952,"bike":false,"name":"Mercure Hotel ","address":null,"spot":true,"number":2817,"bikes":4,"bike_racks":0,"free_racks":0,"maintenance":false,"terminal_type":"free","bike_numbers":"02137,02185,02419,02168","bike_types":{"5":3,"4":1}},{"uid":69275,"lat":53.546025996736,"lng":9.9701249599457,"bike":false,"name":"Landungsbr\u00fccken","address":null,"spot":true,"number":2830,"bikes":5,"bike_racks":0,"free_racks":0,"maintenance":false,"terminal_type":"free","bike_numbers":"02109,02265,02096,02149,02092","bike_types":{"5":4,"4":1}},{"uid":69615,"lat":53.553276740208,"lng":10.005310177803,"bike":false,"name":"Hauptbahnhof \/ Ausgang Glockengie\u00dferwall","address":null,"spot":true,"number":2842,"bikes":2,"bike_racks":0,"free_racks":0,"maintenance":false,"terminal_type":"free","bike_numbers":"10269,10290","bike_types":{"5":2}},{"uid":94631,"lat":53.5509741,"lng":10.0001451,"bike":false,"name":"M\u00f6nckebergstra\u00dfe \/ Gerhard Hauptmann Platz","address":null,"spot":true,"number":2836,"bikes":1,"bike_racks":0,"free_racks":0,"maintenance":false,"terminal_type":"free","bike_numbers":"02267","bike_types":{"4":1}},{"uid":95334,"lat":53.551565358042,"lng":10.005326271057,"bike":false,"name":"Hauptbahnhof S\u00fcd \/ SATURN","address":null,"spot":true,"number":2847,"bikes":4,"bike_racks":0,"free_racks":0,"maintenance":false,"terminal_type":"free","bike_numbers":"10082,02229,02298,02296","bike_types":{"5":2,"4":2}},{"uid":96028,"lat":53.550934328159,"lng":9.9922585487366,"bike":false,"name":"Rathaus","address":null,"spot":true,"number":2804,"bikes":2,"bike_racks":0,"free_racks":0,"maintenance":false,"terminal_type":"free","bike_numbers":"10651,10093","bike_types":{"5":1,"undefined":1}},{"uid":97459,"lat":53.543775623322,"lng":9.9897909164429,"bike":false,"name":"Miniaturwunderland \/ Hamburg Dungeon","address":null,"spot":true,"number":2815,"bikes":3,"bike_racks":0,"free_racks":0,"maintenance":false,"terminal_type":"free","bike_numbers":"02240,02291,02353","bike_types":{"5":1,"4":2}},{"uid":97629,"lat":53.5460277,"lng":9.9727882,"bike":false,"name":"Landungsbr\u00fccken \/ Eingang Hafentor","address":null,"spot":true,"number":2829,"bikes":4,"bike_racks":0,"free_racks":0,"maintenance":false,"terminal_type":"free","bike_numbers":"10502,02331,02061,02049","bike_types":{"5":2,"4":2}},{"uid":99040,"lat":53.547179824522,"lng":9.9422836303711,"bike":false,"name":"S-Bahn-Station K\u00f6nigsstra\u00dfe","address":null,"spot":true,"number":2841,"bikes":2,"bike_racks":0,"free_racks":0,"maintenance":false,"terminal_type":"free","bike_numbers":"02316,02114","bike_types":{"4":1,"5":1}},{"uid":122661,"lat":53.544237820259,"lng":9.9812293052673,"bike":false,"name":"U-Bahn-Station Baumwall","address":null,"spot":true,"number":2809,"bikes":4,"bike_racks":0,"free_racks":0,"maintenance":false,"terminal_type":"free","bike_numbers":"02238,02290,10122,02410","bike_types":{"5":2,"4":2}},{"uid":122663,"lat":53.555383206836,"lng":9.988015294075,"bike":false,"name":"G\u00e4nsemarkt","address":null,"spot":true,"number":2834,"bikes":5,"bike_racks":0,"free_racks":0,"maintenance":false,"terminal_type":"free","bike_numbers":"02191,02161,02207,02347,02278","bike_types":{"5":5}},{"uid":122664,"lat":53.54978060273,"lng":9.9858427047729,"bike":false,"name":"S-Bahn-Station Stadthausbr\u00fccke","address":null,"spot":true,"number":2846,"bikes":2,"bike_racks":0,"free_racks":0,"maintenance":false,"terminal_type":"free","bike_numbers":"02292,10217","bike_types":{"4":1,"undefined":1}},{"uid":122671,"lat":53.553279927074,"lng":10.02388715744,"bike":false,"name":"U Bahn Berliner Tor","address":null,"spot":true,"number":2802,"bikes":3,"bike_racks":0,"free_racks":0,"maintenance":false,"terminal_type":"free","bike_numbers":"02102,02350,02087","bike_types":{"5":2,"4":1}},{"uid":125746,"lat":53.563330110949,"lng":9.9296236038208,"bike":false,"name":"B&B Hotel Hamburg Altona","address":null,"spot":true,"number":2826,"bikes":4,"bike_racks":0,"free_racks":0,"maintenance":false,"terminal_type":"free","bike_numbers":"10142,10443,02264,02076","bike_types":{"5":2,"4":2}},{"uid":150742,"lat":53.552132639502,"lng":10.01043856144,"bike":false,"name":"Hauptbahnhof ZOB","address":null,"spot":true,"number":2808,"bikes":1,"bike_racks":0,"free_racks":0,"maintenance":false,"terminal_type":"free","bike_numbers":null,"bike_types":null},{"uid":153986,"lat":53.552291986858,"lng":9.9360018968582,"bike":false,"name":"Bahnhof Altona \/ Reisezentrum","address":null,"spot":true,"number":2819,"bikes":4,"bike_racks":0,"free_racks":0,"maintenance":false,"terminal_type":"free","bike_numbers":"02202,10289,02147,02106","bike_types":{"5":4}},{"uid":153987,"lat":53.581416973752,"lng":9.9474227428436,"bike":false,"name":"U-Bahn Lutterothstra\u00dfe \/ Else Rauch Platz","address":null,"spot":true,"number":2832,"bikes":0,"bike_racks":0,"free_racks":0,"maintenance":false,"terminal_type":"free","bike_numbers":null,"bike_types":null},{"uid":153990,"lat":53.550354282289,"lng":9.9699211120605,"bike":false,"name":"U-Bahn-Station St.Pauli","address":null,"spot":true,"number":2844,"bikes":4,"bike_racks":0,"free_racks":0,"maintenance":false,"terminal_type":"free","bike_numbers":"02221,02312,02073,02058","bike_types":{"5":1,"4":3}},{"uid":153993,"lat":53.55218681767,"lng":9.9339473247528,"bike":false,"name":"Bahnhof Altona \/ Ausgang Hauptstra\u00dfe","address":null,"spot":true,"number":2852,"bikes":2,"bike_racks":0,"free_racks":0,"maintenance":false,"terminal_type":"free","bike_numbers":"03241,10302","bike_types":{"5":1,"4":1}},{"uid":154507,"lat":53.5454809456,"lng":9.9529749155045,"bike":false,"name":"Fischmarkt","address":null,"spot":true,"number":2812,"bikes":4,"bike_racks":0,"free_racks":0,"maintenance":false,"terminal_type":"free","bike_numbers":"02262,02310,02315,02452","bike_types":{"4":3,"14":1}},{"uid":174066,"lat":53.557031818232,"lng":10.020193648234,"bike":false,"name":"U-Bahn Lohm\u00fchlenstra\u00dfe \/ Motel One","address":null,"spot":true,"number":2824,"bikes":3,"bike_racks":0,"free_racks":0,"maintenance":false,"terminal_type":"free","bike_numbers":"02166,02246,02322","bike_types":{"5":2,"4":1}},{"uid":204633,"lat":53.544183631914,"lng":9.9146890640259,"bike":false,"name":"Museumshafen","address":null,"spot":true,"number":2800,"bikes":3,"bike_racks":0,"free_racks":0,"maintenance":false,"terminal_type":"free","bike_numbers":"02196,02104,02311","bike_types":{"5":2,"4":1}},{"uid":305388,"lat":53.550112062979,"lng":9.9765086174011,"bike":false,"name":"Adina Apartment Hotel Hamburg Michel","address":null,"spot":true,"number":2850,"bikes":0,"bike_racks":0,"free_racks":0,"maintenance":false,"terminal_type":"free","bike_numbers":null,"bike_types":null},{"uid":376053,"lat":53.557331,"lng":10.011153,"bike":false,"name":"Gurlittstr. \/ Lange Reihe","address":null,"spot":true,"number":2806,"bikes":4,"bike_racks":0,"free_racks":0,"maintenance":false,"terminal_type":"free","bike_numbers":"02247,02249,02179,10669","bike_types":{"5":4}},{"uid":447262,"lat":53.571565402842,"lng":9.9565154314041,"bike":false,"name":"Hamburg Haus","address":null,"spot":true,"number":2845,"bikes":3,"bike_racks":0,"free_racks":0,"maintenance":false,"terminal_type":"free","bike_numbers":"02133,10416,02285","bike_types":{"5":2,"4":1}},{"uid":453487,"lat":53.549672240162,"lng":9.9745881557465,"bike":false,"name":"Motel One \/ St. Pauli","address":null,"spot":true,"number":2807,"bikes":2,"bike_racks":0,"free_racks":0,"maintenance":false,"terminal_type":"free","bike_numbers":"02239,02327","bike_types":{"5":2}},{"uid":512173,"lat":53.661323069276,"lng":10.017954111099,"bike":false,"name":"U-Bahnhof Langenhorn-Nord","address":null,"spot":true,"number":2853,"bikes":1,"bike_racks":0,"free_racks":0,"maintenance":false,"terminal_type":"free","bike_numbers":"02324","bike_types":{"5":1}},{"uid":522448,"lat":53.640398695656,"lng":9.9501317739487,"bike":false,"name":"Niendorf Nord","address":null,"spot":true,"number":2854,"bikes":4,"bike_racks":0,"free_racks":0,"maintenance":false,"terminal_type":"free","bike_numbers":"02197,02094,02455,02472","bike_types":{"5":1,"4":1,"14":2}},{"uid":652594,"lat":53.564196723924,"lng":9.9848127365112,"bike":false,"name":"Uni Hamburg \/ Grindel","address":null,"spot":true,"number":2858,"bikes":1,"bike_racks":0,"free_racks":0,"maintenance":false,"terminal_type":null,"bike_numbers":"02277","bike_types":{"4":1}},{"uid":734964,"lat":53.567844587532,"lng":9.9698674678802,"bike":false,"name":"U-Bahn Schlump","address":null,"spot":true,"number":2856,"bikes":5,"bike_racks":0,"free_racks":0,"maintenance":false,"terminal_type":"free","bike_numbers":"02248,02194,02200,02163,02188","bike_types":{"5":5,"4":2}},{"uid":735048,"lat":53.562437990812,"lng":9.961541891098,"bike":false,"name":"Schulterblatt \/ Rote Flora","address":null,"spot":true,"number":2855,"bikes":2,"bike_racks":0,"free_racks":0,"maintenance":false,"terminal_type":"free","bike_numbers":"02336,02086","bike_types":{"undefined":1,"4":1}},{"uid":789663,"lat":53.54711289062,"lng":9.9629634618759,"bike":false,"name":"Riverside Hotel","address":null,"spot":true,"number":2857,"bikes":4,"bike_racks":0,"free_racks":0,"maintenance":false,"terminal_type":"free","bike_numbers":"02250,02255,02175,02223","bike_types":{"5":3,"4":1}},{"uid":2414750,"lat":53.547796,"lng":10.014026,"bike":false,"name":"Ramada Hotel Hamburg ","address":null,"spot":true,"number":2816,"bikes":2,"bike_racks":0,"free_racks":0,"maintenance":false,"terminal_type":"free","bike_numbers":"02454,10020","bike_types":{"14":1,"undefined":1}},{"uid":2815612,"lat":53.559050949122,"lng":9.9757254123688,"bike":false,"name":"U-Bahn Messehalle","address":null,"spot":true,"number":2859,"bikes":1,"bike_racks":0,"free_racks":0,"maintenance":false,"terminal_type":null,"bike_numbers":"02243","bike_types":{"5":1}},{"uid":2815617,"lat":53.557094434594,"lng":9.9670457839966,"bike":false,"name":"Rindermarkthalle \/ Neuer Kamp","address":null,"spot":true,"number":2860,"bikes":5,"bike_racks":0,"free_racks":0,"maintenance":false,"terminal_type":null,"bike_numbers":"02110,02257,02121,02126,02098","bike_types":{"5":5}}]},{"uid":50,"lat":51.2243,"lng":6.77204,"zoom":12,"maps_icon":null,"alias":"duesseldorf","break":false,"name":"D\u00fcsseldorf","num_places":"63","refresh_rate":"1380","bounds":{"south_west":{"lat":51.1957,"lng":6.7376},"north_east":{"lat":51.3006,"lng":6.817}},"booked_bikes":0,"set_point_bikes":501,"available_bikes":287,"places":[{"uid":1992,"lat":51.247508373785,"lng":6.7835587263107,"bike":false,"name":"Spichernplatz","address":null,"spot":true,"number":5030,"bikes":5,"bike_racks":0,"free_racks":0,"maintenance":false,"terminal_type":null,"bike_numbers":"04441,20036,31003,50293,32099","bike_types":{"5":5,"undefined":2}},{"uid":1997,"lat":51.216524700032,"lng":6.8033534288406,"bike":false,"name":"Oberbilker Markt","address":null,"spot":true,"number":5028,"bikes":0,"bike_racks":0,"free_racks":0,"maintenance":false,"terminal_type":null,"bike_numbers":null,"bike_types":null},{"uid":2003,"lat":51.231424592978,"lng":6.762535572052,"bike":false,"name":"Luegplatz","address":null,"spot":true,"number":5034,"bikes":5,"bike_racks":0,"free_racks":0,"maintenance":false,"terminal_type":null,"bike_numbers":"04608,04545,04538,10241,50289","bike_types":{"5":5,"4":3,"14":1}},{"uid":2008,"lat":51.213765926935,"lng":6.7516243457794,"bike":false,"name":"Medienhafen UCI Kino","address":null,"spot":true,"number":5007,"bikes":5,"bike_racks":0,"free_racks":0,"maintenance":false,"terminal_type":null,"bike_numbers":"04617,10280,10256,04871,10613","bike_types":{"5":3,"4":3,"14":1,"undefined":1}},{"uid":2009,"lat":51.226699829102,"lng":6.7585701942444,"bike":false,"name":"Jugendherberge\/D\u00fcsseldorfer Stra\u00dfe","address":null,"spot":true,"number":5014,"bikes":5,"bike_racks":0,"free_racks":0,"maintenance":false,"terminal_type":null,"bike_numbers":"04422,04721,04642,31052,10209","bike_types":{"5":5,"4":4}},{"uid":2011,"lat":51.231448106471,"lng":6.7871528863907,"bike":false,"name":"Goethe Museum \/ Alt Pempelfort","address":null,"spot":true,"number":5001,"bikes":5,"bike_racks":0,"free_racks":0,"maintenance":false,"terminal_type":null,"bike_numbers":"04667,31036,50303,50295,31169","bike_types":{"4":3,"5":4}},{"uid":2349,"lat":51.236570402493,"lng":6.7716389894485,"bike":false,"name":"Rheinterrasse","address":null,"spot":true,"number":5035,"bikes":4,"bike_racks":0,"free_racks":0,"maintenance":false,"terminal_type":null,"bike_numbers":"20040,32010,31168,31176","bike_types":{"5":2,"4":2}},{"uid":2353,"lat":51.238646029594,"lng":6.803240776062,"bike":false,"name":"Brehmstra\u00dfe\/Graf-Recke-Stra\u00dfe","address":null,"spot":true,"number":5044,"bikes":2,"bike_racks":0,"free_racks":0,"maintenance":false,"terminal_type":null,"bike_numbers":"10099,08213","bike_types":{"5":2}},{"uid":2680,"lat":51.227131499577,"lng":6.7877697944641,"bike":false,"name":"Tonhallenstra\u00dfe","address":null,"spot":true,"number":5003,"bikes":0,"bike_racks":0,"free_racks":0,"maintenance":false,"terminal_type":null,"bike_numbers":null,"bike_types":null},{"uid":2728,"lat":51.250312132383,"lng":6.8005800247192,"bike":false,"name":"ARAG Platz","address":null,"spot":true,"number":5032,"bikes":4,"bike_racks":0,"free_racks":0,"maintenance":false,"terminal_type":null,"bike_numbers":"00728,02351,31022,04925","bike_types":{"5":4}},{"uid":2751,"lat":51.225146060391,"lng":6.7767512798309,"bike":false,"name":"Heinrich-Heine-Platz","address":null,"spot":true,"number":5025,"bikes":5,"bike_racks":0,"free_racks":0,"maintenance":false,"terminal_type":null,"bike_numbers":"31053,20029,00819,32028,04876","bike_types":{"5":3,"4":5}},{"uid":3002,"lat":51.231589187178,"lng":6.7473435401917,"bike":false,"name":"Belsenplatz","address":null,"spot":true,"number":5009,"bikes":2,"bike_racks":0,"free_racks":0,"maintenance":false,"terminal_type":null,"bike_numbers":"31060,10448","bike_types":{"5":2}},{"uid":3130,"lat":51.226923217254,"lng":6.7716550827026,"bike":true,"name":"Burgplatz","address":null,"spot":true,"number":5037,"bikes":1,"bike_racks":0,"free_racks":0,"maintenance":false,"terminal_type":null,"bike_numbers":"31064","bike_types":{"5":1}},{"uid":3521,"lat":51.218984270636,"lng":6.7839181423187,"bike":false,"name":"Oststra\u00dfe","address":null,"spot":true,"number":5027,"bikes":1,"bike_racks":0,"free_racks":0,"maintenance":false,"terminal_type":null,"bike_numbers":"04473","bike_types":{"5":1}},{"uid":3522,"lat":51.224098205566,"lng":6.7699198722839,"bike":false,"name":"Rathausufer\/Schulstra\u00dfe","address":null,"spot":true,"number":5022,"bikes":0,"bike_racks":0,"free_racks":0,"maintenance":false,"terminal_type":null,"bike_numbers":null,"bike_types":null},{"uid":5920,"lat":51.235294080435,"lng":6.7780494689941,"bike":false,"name":"Nordstra\u00dfe U\/Fischerstra\u00dfe","address":null,"spot":true,"number":5012,"bikes":1,"bike_racks":0,"free_racks":0,"maintenance":false,"terminal_type":null,"bike_numbers":"04518","bike_types":{"5":1}},{"uid":7061,"lat":51.208751996507,"lng":6.7765474319458,"bike":false,"name":"Bilker Arcaden","address":null,"spot":true,"number":5008,"bikes":5,"bike_racks":0,"free_racks":0,"maintenance":false,"terminal_type":null,"bike_numbers":"31183,31063,02341,20015,05665","bike_types":{"5":5,"4":5,"undefined":2,"14":1}},{"uid":7744,"lat":51.226963530035,"lng":6.7829418182373,"bike":false,"name":"Berliner Allee \/ Schadowstr.","address":null,"spot":true,"number":5005,"bikes":4,"bike_racks":0,"free_racks":0,"maintenance":false,"terminal_type":"free","bike_numbers":"04561,04802,31030,00680","bike_types":{"5":3,"4":1}},{"uid":20725,"lat":51.218927150951,"lng":6.7658615112305,"bike":false,"name":"Apolloplatz","address":null,"spot":true,"number":5023,"bikes":2,"bike_racks":0,"free_racks":0,"maintenance":false,"terminal_type":null,"bike_numbers":"04464,02183","bike_types":{"5":2}},{"uid":66643,"lat":51.22651336864,"lng":6.7990779876709,"bike":false,"name":"Ackerstra\u00dfe\/Gerresheimer Stra\u00dfe","address":null,"spot":true,"number":5011,"bikes":1,"bike_racks":0,"free_racks":0,"maintenance":false,"terminal_type":null,"bike_numbers":"00854","bike_types":{"5":1}},{"uid":66644,"lat":51.217415133527,"lng":6.7824053764343,"bike":false,"name":"Berliner Allee \/ Corneliusstra\u00dfe","address":null,"spot":true,"number":5026,"bikes":3,"bike_racks":0,"free_racks":0,"maintenance":false,"terminal_type":"free","bike_numbers":"10104,04680,50153","bike_types":{"5":2,"4":1}},{"uid":66645,"lat":51.237900426753,"lng":6.789368391037,"bike":false,"name":"Carl-Mosterts-Platz","address":null,"spot":true,"number":5018,"bikes":5,"bike_racks":0,"free_racks":0,"maintenance":false,"terminal_type":null,"bike_numbers":"04566,31048,50036,32095,31306","bike_types":{"5":4,"undefined":2}},{"uid":66646,"lat":51.242592149697,"lng":6.7820996046066,"bike":false,"name":"Collenbachstra\u00dfe\/Ro\u00dfstra\u00dfe","address":null,"spot":true,"number":5021,"bikes":2,"bike_racks":0,"free_racks":0,"maintenance":false,"terminal_type":null,"bike_numbers":"04679,50021","bike_types":{"4":1,"5":1}},{"uid":66647,"lat":51.252514725824,"lng":6.7820405960083,"bike":false,"name":"Derendorfer Allee 10","address":null,"spot":true,"number":5010,"bikes":3,"bike_racks":0,"free_racks":0,"maintenance":false,"terminal_type":null,"bike_numbers":"04474,00706,50009","bike_types":{"5":3}},{"uid":66648,"lat":51.23189486056,"lng":6.8091416358948,"bike":false,"name":"Grafenberger Allee \/ Dorotheenstra\u00dfe","address":null,"spot":true,"number":5031,"bikes":5,"bike_racks":0,"free_racks":0,"maintenance":false,"terminal_type":null,"bike_numbers":"04696,04682,04457,04819,05615","bike_types":{"4":5,"5":5,"undefined":2}},{"uid":66649,"lat":51.220674309239,"lng":6.8091416358948,"bike":false,"name":"Erkrather Stra\u00dfe\/Werdener Stra\u00dfe","address":null,"spot":true,"number":5033,"bikes":1,"bike_racks":0,"free_racks":0,"maintenance":false,"terminal_type":null,"bike_numbers":"31034","bike_types":{"5":1}},{"uid":66650,"lat":51.248545952281,"lng":6.7769873142242,"bike":false,"name":"Frankenplatz \/ Frankenstra\u00dfe","address":null,"spot":true,"number":5013,"bikes":5,"bike_racks":0,"free_racks":0,"maintenance":false,"terminal_type":null,"bike_numbers":"04705,04438,50259,50477,05872","bike_types":{"4":1,"5":4,"undefined":1}},{"uid":66651,"lat":51.212267181881,"lng":6.7856240272522,"bike":false,"name":"F\u00fcrstenplatz\/Kirchfeldstra\u00dfe","address":null,"spot":true,"number":5043,"bikes":5,"bike_racks":0,"free_racks":0,"maintenance":false,"terminal_type":null,"bike_numbers":"04644,31100,20003,50280,31188","bike_types":{"4":2,"5":3}},{"uid":66652,"lat":51.207585809771,"lng":6.7601430416107,"bike":false,"name":"Georg-Schulhoff-Platz\/F\u00e4hrstra\u00dfe","address":null,"spot":true,"number":5002,"bikes":1,"bike_racks":0,"free_racks":0,"maintenance":false,"terminal_type":null,"bike_numbers":"04806","bike_types":{"5":1}},{"uid":66654,"lat":51.23099462984,"lng":6.7750078439713,"bike":false,"name":"Tonhalle","address":null,"spot":true,"number":5019,"bikes":0,"bike_racks":0,"free_racks":0,"maintenance":false,"terminal_type":null,"bike_numbers":null,"bike_types":null},{"uid":66655,"lat":51.249788329391,"lng":6.765239238739,"bike":false,"name":"Kaiserswerther Stra\u00dfe\/Uerdinger Stra\u00dfe","address":null,"spot":true,"number":5024,"bikes":3,"bike_racks":0,"free_racks":0,"maintenance":false,"terminal_type":null,"bike_numbers":"31083,04468,52475","bike_types":{"5":2,"4":1}},{"uid":66658,"lat":51.21981753798,"lng":6.7784196138382,"bike":false,"name":"K\u00f6nigsallee \/ Graf-Adolf-Platz","address":null,"spot":true,"number":5004,"bikes":2,"bike_racks":0,"free_racks":0,"maintenance":false,"terminal_type":null,"bike_numbers":"31221,52046","bike_types":{"5":1,"4":1}},{"uid":66659,"lat":51.223056385525,"lng":6.7792296409607,"bike":false,"name":"K\u00f6nigsallee\/Steinstra\u00dfe","address":null,"spot":true,"number":5020,"bikes":2,"bike_racks":0,"free_racks":0,"maintenance":false,"terminal_type":null,"bike_numbers":"50126,32083","bike_types":{"4":1,"undefined":1}},{"uid":66660,"lat":51.215929948068,"lng":6.7580991983414,"bike":false,"name":"Medienhafen \/ Gehrybauten","address":null,"spot":true,"number":5006,"bikes":4,"bike_racks":0,"free_racks":0,"maintenance":false,"terminal_type":null,"bike_numbers":"04659,04611,31333,51226","bike_types":{"4":3,"5":1}},{"uid":66661,"lat":51.243878343776,"lng":6.7871260643005,"bike":false,"name":"M\u00fcnsterplatz","address":null,"spot":true,"number":5038,"bikes":2,"bike_racks":0,"free_racks":0,"maintenance":false,"terminal_type":null,"bike_numbers":"31097,51106","bike_types":{"5":2}},{"uid":66665,"lat":51.222488595738,"lng":6.8131649494171,"bike":false,"name":"Stadtwerke D\u00fcsseldorf","address":null,"spot":true,"number":5046,"bikes":5,"bike_racks":0,"free_racks":0,"maintenance":false,"terminal_type":null,"bike_numbers":"04815,04812,31074,10422,50283","bike_types":{"5":5}},{"uid":66666,"lat":51.223140377502,"lng":6.7731302976608,"bike":false,"name":"Carlsplatz","address":null,"spot":true,"number":5036,"bikes":0,"bike_racks":0,"free_racks":0,"maintenance":false,"terminal_type":null,"bike_numbers":null,"bike_types":null},{"uid":66677,"lat":51.240644319954,"lng":6.78198158741,"bike":false,"name":"Nordstra\u00dfe\/Collenbachstra\u00dfe","address":null,"spot":true,"number":5029,"bikes":3,"bike_racks":0,"free_racks":0,"maintenance":false,"terminal_type":null,"bike_numbers":"04881,20087,32155","bike_types":{"4":1,"undefined":2}},{"uid":66747,"lat":51.218527311173,"lng":6.7948669195175,"bike":false,"name":"Radstation","address":null,"spot":true,"number":5017,"bikes":5,"bike_racks":0,"free_racks":0,"maintenance":false,"terminal_type":null,"bike_numbers":"04405,04411,04558,04555,04859","bike_types":{"5":5,"4":1,"undefined":1,"14":1}},{"uid":66983,"lat":51.213752485492,"lng":6.7766225337982,"bike":false,"name":"Kirchplatz","address":null,"spot":true,"number":5041,"bikes":5,"bike_racks":0,"free_racks":0,"maintenance":false,"terminal_type":null,"bike_numbers":"04639,04520,50298,32084,06253","bike_types":{"4":3,"5":3,"undefined":1}},{"uid":121909,"lat":51.229671124339,"lng":6.7978549003601,"bike":false,"name":"S-Bahnhof Wehrhahn","address":null,"spot":true,"number":5072,"bikes":1,"bike_racks":0,"free_racks":0,"maintenance":false,"terminal_type":null,"bike_numbers":"20102","bike_types":{"4":1}},{"uid":121911,"lat":51.236647652429,"lng":6.7976671457291,"bike":false,"name":"S-Bahnhof Zoo","address":null,"spot":true,"number":5076,"bikes":2,"bike_racks":0,"free_racks":0,"maintenance":false,"terminal_type":null,"bike_numbers":"00538,31300","bike_types":{"4":2}},{"uid":121916,"lat":51.212163007206,"lng":6.7637211084366,"bike":false,"name":"Bilker Allee \/ Neusser Str.","address":null,"spot":true,"number":5083,"bikes":5,"bike_racks":0,"free_racks":0,"maintenance":false,"terminal_type":null,"bike_numbers":"04697,04673,31069,50318,50742","bike_types":{"4":5,"5":4,"undefined":1,"14":1}},{"uid":121921,"lat":51.209558563717,"lng":6.7935955524445,"bike":false,"name":"S-Bahnhof Volksgarten","address":null,"spot":true,"number":5073,"bikes":2,"bike_racks":0,"free_racks":0,"maintenance":false,"terminal_type":null,"bike_numbers":"31249,31314","bike_types":{"5":1,"4":1}},{"uid":121923,"lat":51.227071030612,"lng":6.8118560314179,"bike":false,"name":"Dorotheenplatz","address":null,"spot":true,"number":5078,"bikes":5,"bike_racks":0,"free_racks":0,"maintenance":false,"terminal_type":null,"bike_numbers":"04693,04946,31251,31199,20537","bike_types":{"4":4,"5":4,"undefined":1}},{"uid":121924,"lat":51.223674562891,"lng":6.7958110570908,"bike":false,"name":"Worringer Platz","address":null,"spot":true,"number":5062,"bikes":5,"bike_racks":0,"free_racks":0,"maintenance":false,"terminal_type":null,"bike_numbers":"50012,51037,04887,50766,52884","bike_types":{"5":3,"undefined":2}},{"uid":121931,"lat":51.2187188315,"lng":6.7765206098557,"bike":false,"name":"Graf-Adolf-Platz","address":null,"spot":true,"number":5053,"bikes":1,"bike_racks":0,"free_racks":0,"maintenance":false,"terminal_type":null,"bike_numbers":"31077","bike_types":{"5":1}},{"uid":121935,"lat":51.229607299508,"lng":6.7767459154129,"bike":false,"name":"Ratinger Tor","address":null,"spot":true,"number":5081,"bikes":4,"bike_racks":0,"free_racks":0,"maintenance":false,"terminal_type":null,"bike_numbers":"04654,31020,31087,50013","bike_types":{"4":1,"5":3}},{"uid":121997,"lat":51.2122844,"lng":6.79367334,"bike":false,"name":"Volksgartenstra\u00dfe\/Sonnenstra\u00dfe","address":null,"spot":true,"number":5079,"bikes":3,"bike_racks":0,"free_racks":0,"maintenance":false,"terminal_type":null,"bike_numbers":"04868,04944,50788","bike_types":{"4":1,"5":2}},{"uid":122000,"lat":51.205700356072,"lng":6.788467168808,"bike":false,"name":"Auf'm Hennekamp\/Redinghovenstra\u00dfe","address":null,"spot":true,"number":5063,"bikes":5,"bike_racks":0,"free_racks":0,"maintenance":false,"terminal_type":null,"bike_numbers":"04636,04448,31102,31045,05698","bike_types":{"5":5,"undefined":1,"4":3}},{"uid":122769,"lat":51.220539914802,"lng":6.7979300022125,"bike":false,"name":"Ludwig-Erhard-Allee","address":null,"spot":true,"number":5068,"bikes":1,"bike_racks":0,"free_racks":0,"maintenance":false,"terminal_type":null,"bike_numbers":"31101","bike_types":{"5":1}},{"uid":175517,"lat":51.195737426384,"lng":6.768651008606,"bike":false,"name":"Aachener Platz","address":null,"spot":true,"number":5098,"bikes":5,"bike_racks":0,"free_racks":0,"maintenance":false,"terminal_type":null,"bike_numbers":"04686,04581,04539,04512,04500","bike_types":{"4":4,"5":5,"undefined":1}},{"uid":236597,"lat":51.290965875434,"lng":6.7875015735626,"bike":false,"name":"S-Bahnhof Flughafen","address":null,"spot":true,"number":5100,"bikes":2,"bike_racks":0,"free_racks":0,"maintenance":false,"terminal_type":null,"bike_numbers":"04924,31208","bike_types":{"5":2}},{"uid":236650,"lat":51.276930924545,"lng":6.7888963222504,"bike":false,"name":"S-Bahnhof Unterrath","address":null,"spot":true,"number":5040,"bikes":1,"bike_racks":0,"free_racks":0,"maintenance":false,"terminal_type":null,"bike_numbers":"04666","bike_types":{"4":1}},{"uid":236653,"lat":51.284661918138,"lng":6.7859619855881,"bike":false,"name":"C&A Online GmbH","address":null,"spot":true,"number":5045,"bikes":5,"bike_racks":0,"free_racks":0,"maintenance":false,"terminal_type":null,"bike_numbers":"04838,31031,05591,20013,20520","bike_types":{"5":5,"4":1}},{"uid":274376,"lat":51.238044846265,"lng":6.7783498764038,"bike":false,"name":"Hotel Indigo","address":null,"spot":true,"number":5055,"bikes":2,"bike_racks":0,"free_racks":0,"maintenance":false,"terminal_type":null,"bike_numbers":"31047,50239","bike_types":{"5":2}},{"uid":309170,"lat":51.213759206214,"lng":6.8169951438904,"bike":false,"name":"Ronsdorfer Stra\u00dfe","address":null,"spot":true,"number":5066,"bikes":1,"bike_racks":0,"free_racks":0,"maintenance":false,"terminal_type":null,"bike_numbers":"04574","bike_types":{"5":1}},{"uid":326142,"lat":51.300582859146,"lng":6.7391681671143,"bike":false,"name":"Klemensplatz","address":null,"spot":true,"number":5050,"bikes":5,"bike_racks":0,"free_racks":0,"maintenance":false,"terminal_type":null,"bike_numbers":"02103,04707,04676,04858,31038","bike_types":{"5":5,"4":5,"14":1}},{"uid":333392,"lat":51.256261578345,"lng":6.7395544052124,"bike":false,"name":"CCD","address":null,"spot":true,"number":5099,"bikes":2,"bike_racks":0,"free_racks":0,"maintenance":false,"terminal_type":null,"bike_numbers":"31072,50267","bike_types":{"5":2}},{"uid":342105,"lat":51.241685411629,"lng":6.7376393079758,"bike":false,"name":"Am Seestern","address":null,"spot":true,"number":5097,"bikes":4,"bike_racks":0,"free_racks":0,"maintenance":false,"terminal_type":null,"bike_numbers":"04439,20002,31350,52431","bike_types":{"undefined":2,"5":1,"4":1}},{"uid":2342613,"lat":51.247284,"lng":6.794717,"bike":false,"name":"Derendorf S-Bahn","address":null,"spot":true,"number":5096,"bikes":1,"bike_racks":0,"free_racks":0,"maintenance":false,"terminal_type":"free","bike_numbers":"04655","bike_types":{"4":1}}]},{"uid":101,"lat":48.5203,"lng":9.05591,"zoom":14,"maps_icon":null,"alias":"tuebingen","break":false,"name":"T\u00fcbingen","num_places":"12","refresh_rate":"3007","bounds":{"south_west":{"lat":48.511,"lng":9.0355},"north_east":{"lat":48.5252,"lng":9.0863}},"booked_bikes":0,"set_point_bikes":69,"available_bikes":60,"places":[{"uid":27497,"lat":48.518549801543,"lng":9.0583026409149,"bike":false,"name":"Nr. 1 \/ Eberhardsbr\u00fccke \/ Tourismusinformation","address":null,"spot":true,"number":4801,"bikes":5,"bike_racks":8,"free_racks":0,"maintenance":false,"terminal_type":"character","bike_numbers":"30090,30082,30081,30079,30077","bike_types":{"5":5,"4":1}},{"uid":27498,"lat":48.517020095716,"lng":9.0569400787353,"bike":false,"name":"Nr. 2 \/ Europaplatz \/ Hauptbahnhof","address":null,"spot":true,"number":4802,"bikes":5,"bike_racks":12,"free_racks":4,"maintenance":false,"terminal_type":"stele","bike_numbers":"30087,30083,30080,30069,30066","bike_types":{"5":5,"undefined":1}},{"uid":27506,"lat":48.523504594215,"lng":9.0518009662628,"bike":false,"name":"Nr. 4 \/ Schnarrenbergstra\u00dfe \/ Parkhaus K\u00f6nig","address":null,"spot":true,"number":4804,"bikes":5,"bike_racks":12,"free_racks":3,"maintenance":false,"terminal_type":"stele","bike_numbers":"30062,30060,30055,30052,30043","bike_types":{"5":5,"4":1,"undefined":3}},{"uid":27507,"lat":48.524335971242,"lng":9.0585118532181,"bike":false,"name":"Nr. 6 \/ Silcherstra\u00dfe \/ Universit\u00e4t \/ Alter Botanischer Garten","address":null,"spot":true,"number":4806,"bikes":4,"bike_racks":4,"free_racks":0,"maintenance":false,"terminal_type":"stele","bike_numbers":"30084,30073,30049,30046","bike_types":{"5":4}},{"uid":27508,"lat":48.525217073879,"lng":9.0596222877502,"bike":false,"name":"Nr. 5 \/ Nauklerstra\u00dfe \/ Universit\u00e4t","address":null,"spot":true,"number":4805,"bikes":5,"bike_racks":8,"free_racks":0,"maintenance":false,"terminal_type":"stele","bike_numbers":"30088,30068,30067,30065,30045","bike_types":{"5":5,"4":1,"undefined":1}},{"uid":28182,"lat":48.522310798207,"lng":9.0560348331928,"bike":false,"name":"Nr. 7 \/ Nonnengasse  ","address":null,"spot":true,"number":4807,"bikes":2,"bike_racks":4,"free_racks":2,"maintenance":false,"terminal_type":"stele","bike_numbers":"30086,30041","bike_types":{"5":2}},{"uid":28183,"lat":48.521450963414,"lng":9.0577661991119,"bike":false,"name":"Nr. 3 \/ \u00d6sterbergstra\u00dfe \/ Lustnauertor","address":null,"spot":true,"number":4803,"bikes":4,"bike_racks":4,"free_racks":0,"maintenance":false,"terminal_type":"stele","bike_numbers":"30074,30051,30033,30096","bike_types":{"5":2,"4":1,"undefined":1}},{"uid":28185,"lat":48.520630198404,"lng":9.0497410297394,"bike":false,"name":"Nr. 8 \/ Haagtorplatz ","address":null,"spot":true,"number":4808,"bikes":2,"bike_racks":4,"free_racks":2,"maintenance":false,"terminal_type":"stele","bike_numbers":"30075,30059","bike_types":{"5":2}},{"uid":28192,"lat":48.5109764,"lng":9.0354792,"bike":false,"name":"Nr. 9 \/ Rappenberghalde \/ Campingplatz","address":null,"spot":true,"number":4809,"bikes":3,"bike_racks":4,"free_racks":1,"maintenance":false,"terminal_type":"stele","bike_numbers":"30089,30070,30093","bike_types":{"5":2,"undefined":1}},{"uid":209311,"lat":48.512205040686,"lng":9.0752005577087,"bike":false,"name":"Nr. 10 \/ Bei den Pferdest\u00e4llen 11 \/ Franz\u00f6sisches Viertel","address":null,"spot":true,"number":4810,"bikes":1,"bike_racks":4,"free_racks":3,"maintenance":false,"terminal_type":"stele","bike_numbers":"30054","bike_types":{"5":1}},{"uid":209313,"lat":48.511096269473,"lng":9.061381816864,"bike":false,"name":"Nr. 11 \/ Parkhaus Lorettoplatz \/ Katharinenstra\u00dfe 14","address":null,"spot":true,"number":4811,"bikes":5,"bike_racks":8,"free_racks":1,"maintenance":false,"terminal_type":"character","bike_numbers":"30085,30078,30072,30063,30050","bike_types":{"5":5,"undefined":2}}]},{"uid":139,"lat":48.1358,"lng":11.5356,"zoom":10,"maps_icon":null,"alias":"muenchen","break":false,"name":"M\u00fcnchen","num_places":"9","refresh_rate":"3453","bounds":{"south_west":{"lat":48.0851,"lng":11.2764},"north_east":{"lat":48.129,"lng":11.4326}},"booked_bikes":0,"set_point_bikes":62,"available_bikes":28,"places":[{"uid":145953,"lat":48.12902620096,"lng":11.36381149292,"bike":false,"name":"S-Bhf Germering","address":null,"spot":true,"number":4487,"bikes":5,"bike_racks":7,"free_racks":0,"maintenance":false,"terminal_type":null,"bike_numbers":"31378,31406,31394,31436,31449","bike_types":{"4":1,"14":5,"undefined":3}},{"uid":145954,"lat":48.105597164022,"lng":11.413164138794,"bike":false,"name":"S-Bhf Planegg","address":null,"spot":true,"number":4488,"bikes":1,"bike_racks":10,"free_racks":9,"maintenance":false,"terminal_type":null,"bike_numbers":"31407","bike_types":{"14":1}},{"uid":202396,"lat":48.110654900972,"lng":11.431488990784,"bike":false,"name":"Industriegebiet Steinkirchen","address":null,"spot":true,"number":4489,"bikes":1,"bike_racks":10,"free_racks":9,"maintenance":false,"terminal_type":"character","bike_numbers":"31377","bike_types":{"4":1}},{"uid":204505,"lat":48.095659338969,"lng":11.363500356674,"bike":false,"name":"Gewerbegebiet KIM Ost","address":null,"spot":true,"number":4492,"bikes":0,"bike_racks":5,"free_racks":5,"maintenance":false,"terminal_type":null,"bike_numbers":null,"bike_types":null},{"uid":204506,"lat":48.093061717631,"lng":11.358329057693,"bike":false,"name":"Gewerbegebiet KIM West","address":null,"spot":true,"number":4493,"bikes":0,"bike_racks":6,"free_racks":6,"maintenance":false,"terminal_type":null,"bike_numbers":null,"bike_types":null},{"uid":215644,"lat":48.085107,"lng":11.276393,"bike":false,"name":"Deutsches Zentrum f\u00fcr Luft- und Raumfahrt","address":null,"spot":true,"number":4495,"bikes":5,"bike_racks":12,"free_racks":6,"maintenance":false,"terminal_type":"character","bike_numbers":"31384,31381,31438,31448,31460","bike_types":{"4":2,"undefined":1,"14":2}},{"uid":222828,"lat":48.107932668149,"lng":11.432583332062,"bike":false,"name":"Industriegebiet Steinkirchen S\u00fcd","address":null,"spot":true,"number":4490,"bikes":0,"bike_racks":12,"free_racks":11,"maintenance":false,"terminal_type":"character","bike_numbers":null,"bike_types":null},{"uid":344579,"lat":48.091688,"lng":11.283101,"bike":false,"name":"ASTO Park","address":null,"spot":true,"number":4497,"bikes":5,"bike_racks":12,"free_racks":4,"maintenance":false,"terminal_type":"character","bike_numbers":"31352,31372,31379,31402,31398","bike_types":{"14":5,"4":2,"undefined":1}},{"uid":399959,"lat":48.098967,"lng":11.28869,"bike":false,"name":"S-Bhf Neugilching","address":null,"spot":true,"number":4494,"bikes":4,"bike_racks":12,"free_racks":5,"maintenance":false,"terminal_type":null,"bike_numbers":"31368,31403,31451,31452","bike_types":{"4":1,"undefined":3}}]},{"uid":147,"lat":54.7804,"lng":9.43571,"zoom":14,"maps_icon":null,"alias":"flensburg","break":false,"name":"Flensburg","num_places":"9","refresh_rate":"3453","bounds":{"south_west":{"lat":54.775,"lng":9.4189},"north_east":{"lat":54.8272,"lng":9.4724}},"booked_bikes":0,"set_point_bikes":42,"available_bikes":0,"places":[{"uid":45757,"lat":54.785171558697,"lng":9.4379425048828,"bike":false,"name":"ZOB ","address":null,"spot":true,"number":2907,"bikes":0,"bike_racks":0,"free_racks":0,"maintenance":false,"terminal_type":"free","bike_numbers":null,"bike_types":null},{"uid":45760,"lat":54.789514400513,"lng":9.4337582588196,"bike":false,"name":"Willy-Brandt-Platz","address":null,"spot":true,"number":2904,"bikes":0,"bike_racks":0,"free_racks":0,"maintenance":false,"terminal_type":"free","bike_numbers":null,"bike_types":null},{"uid":45765,"lat":54.81550911024,"lng":9.4723874330521,"bike":false,"name":"Twedter Plack","address":null,"spot":true,"number":2902,"bikes":0,"bike_racks":0,"free_racks":0,"maintenance":false,"terminal_type":"free","bike_numbers":null,"bike_types":null},{"uid":47493,"lat":54.774968376204,"lng":9.4373738765717,"bike":false,"name":"Hauptbahnhof","address":null,"spot":true,"number":2901,"bikes":0,"bike_racks":0,"free_racks":0,"maintenance":false,"terminal_type":"free","bike_numbers":null,"bike_types":null},{"uid":48465,"lat":54.775667645507,"lng":9.4526624679565,"bike":false,"name":"Campus Unigel\u00e4nde","address":null,"spot":true,"number":2903,"bikes":0,"bike_racks":0,"free_racks":0,"maintenance":false,"terminal_type":"free","bike_numbers":null,"bike_types":null},{"uid":48469,"lat":54.782504995949,"lng":9.4368588924408,"bike":false,"name":"Dr.-Todsen-Str. \/ Ecke Angelburger Str.","address":null,"spot":true,"number":2905,"bikes":0,"bike_racks":0,"free_racks":0,"maintenance":false,"terminal_type":"free","bike_numbers":null,"bike_types":null},{"uid":48470,"lat":54.795712349674,"lng":9.4308829307556,"bike":false,"name":"Nordertorplatz \/ Ph\u00e4nomenta","address":null,"spot":true,"number":2908,"bikes":0,"bike_racks":0,"free_racks":0,"maintenance":false,"terminal_type":"free","bike_numbers":null,"bike_types":null},{"uid":48471,"lat":54.790801078888,"lng":9.4378781318665,"bike":false,"name":"Fischereihafen (Ostseite)","address":null,"spot":true,"number":2900,"bikes":0,"bike_racks":0,"free_racks":0,"maintenance":false,"terminal_type":"free","bike_numbers":null,"bike_types":null},{"uid":242867,"lat":54.82719463144,"lng":9.4189095497131,"bike":false,"name":"Wassersleben ","address":null,"spot":true,"number":2909,"bikes":0,"bike_racks":0,"free_racks":0,"maintenance":false,"terminal_type":"free","bike_numbers":null,"bike_types":null}]},{"uid":155,"lat":48.4721,"lng":7.94243,"zoom":14,"maps_icon":null,"alias":"offenburg","break":false,"name":"Offenburg","num_places":"24","refresh_rate":"2161","bounds":{"south_west":{"lat":48.4575,"lng":7.925},"north_east":{"lat":48.4815,"lng":7.9655}},"booked_bikes":0,"set_point_bikes":99,"available_bikes":44,"places":[{"uid":52511,"lat":48.475481865812,"lng":7.9452180862427,"bike":false,"name":"Bahnhof \/ ZOB","address":null,"spot":true,"number":4901,"bikes":1,"bike_racks":27,"free_racks":25,"maintenance":false,"terminal_type":"7inch","bike_numbers":"31717","bike_types":{"15":1}},{"uid":52513,"lat":48.475197361824,"lng":7.9472780227661,"bike":false,"name":"Bahnhof \/ Osteingang","address":null,"spot":true,"number":4902,"bikes":5,"bike_racks":10,"free_racks":5,"maintenance":false,"terminal_type":"pult","bike_numbers":"31709,31697,31659,31684,31681","bike_types":{"15":5}},{"uid":52514,"lat":48.472124617097,"lng":7.9438233375549,"bike":false,"name":"Gustav-R\u00e9e-Anlage","address":null,"spot":true,"number":4903,"bikes":0,"bike_racks":5,"free_racks":4,"maintenance":false,"terminal_type":"pult","bike_numbers":null,"bike_types":null},{"uid":52515,"lat":48.468639102696,"lng":7.9426860809326,"bike":false,"name":"Stadtbuckel","address":null,"spot":true,"number":4904,"bikes":4,"bike_racks":20,"free_racks":16,"maintenance":false,"terminal_type":"pult","bike_numbers":"31651,31639,31665,31685","bike_types":{"15":4}},{"uid":52516,"lat":48.471274,"lng":7.940743,"bike":false,"name":"City-Parkhaus","address":null,"spot":true,"number":4905,"bikes":1,"bike_racks":5,"free_racks":3,"maintenance":false,"terminal_type":"pult","bike_numbers":"31730","bike_types":{"15":1}},{"uid":52517,"lat":48.465252945167,"lng":7.939338684082,"bike":false,"name":"Landratsamt \/ Medienpark","address":null,"spot":true,"number":4906,"bikes":5,"bike_racks":10,"free_racks":0,"maintenance":false,"terminal_type":"pult","bike_numbers":"31713,31703,31657,31654,31644","bike_types":{"15":5}},{"uid":52518,"lat":48.470519,"lng":7.94867,"bike":false,"name":"B\u00fcrgerB\u00fcroBauen \/ Technisches Rathaus","address":null,"spot":true,"number":4907,"bikes":2,"bike_racks":4,"free_racks":2,"maintenance":false,"terminal_type":"pult","bike_numbers":"31691,31646","bike_types":{"15":2}},{"uid":52519,"lat":48.468938,"lng":7.955748,"bike":false,"name":"Kulturforum","address":null,"spot":true,"number":4908,"bikes":1,"bike_racks":4,"free_racks":3,"maintenance":false,"terminal_type":"pult","bike_numbers":"31728","bike_types":{"15":1}},{"uid":52520,"lat":48.473490304394,"lng":7.9501104354858,"bike":false,"name":"Schillerplatz","address":null,"spot":true,"number":4909,"bikes":2,"bike_racks":4,"free_racks":2,"maintenance":false,"terminal_type":"pult","bike_numbers":"31668,31663","bike_types":{"15":2}},{"uid":52521,"lat":48.476875912291,"lng":7.954638004303,"bike":false,"name":"Ortenau Klinikum","address":null,"spot":true,"number":4910,"bikes":0,"bike_racks":5,"free_racks":5,"maintenance":false,"terminal_type":"pult","bike_numbers":null,"bike_types":null},{"uid":52522,"lat":48.481509,"lng":7.957641,"bike":false,"name":"EDEKA \/ Sparkasse","address":null,"spot":true,"number":4911,"bikes":2,"bike_racks":5,"free_racks":3,"maintenance":false,"terminal_type":"pult","bike_numbers":"31655,31641","bike_types":{"15":2}},{"uid":52523,"lat":48.464883015109,"lng":7.9323971271515,"bike":false,"name":"Oberrheinhalle","address":null,"spot":true,"number":4912,"bikes":0,"bike_racks":10,"free_racks":10,"maintenance":false,"terminal_type":"pult","bike_numbers":null,"bike_types":null},{"uid":52525,"lat":48.479676,"lng":7.941014,"bike":false,"name":"Zentrum Nordweststadt","address":null,"spot":true,"number":4913,"bikes":1,"bike_racks":5,"free_racks":4,"maintenance":false,"terminal_type":"pult","bike_numbers":"31714","bike_types":{"15":1}},{"uid":183656,"lat":48.472672319022,"lng":7.9249513149262,"bike":false,"name":"E-Center","address":null,"spot":true,"number":4914,"bikes":4,"bike_racks":6,"free_racks":2,"maintenance":false,"terminal_type":"pult","bike_numbers":"31716,31710,31695,31672","bike_types":{"15":4}},{"uid":183657,"lat":48.469565,"lng":7.965473,"bike":false,"name":"St. Josefsklinik","address":null,"spot":true,"number":4915,"bikes":5,"bike_racks":6,"free_racks":1,"maintenance":false,"terminal_type":"pult","bike_numbers":"31715,31712,31726,31647,31676","bike_types":{"15":5}},{"uid":336452,"lat":48.479372297763,"lng":7.9532217979431,"bike":false,"name":"Oststadt-Schulen","address":null,"spot":true,"number":4916,"bikes":2,"bike_racks":6,"free_racks":4,"maintenance":false,"terminal_type":"stele","bike_numbers":"31670,31660","bike_types":{"15":2}},{"uid":376545,"lat":48.464313886678,"lng":7.9320216178894,"bike":false,"name":"E-Bike-Station Messe","address":null,"spot":true,"number":4917,"bikes":2,"bike_racks":3,"free_racks":1,"maintenance":false,"terminal_type":"7inch","bike_numbers":"31723,31722","bike_types":{"17":2}},{"uid":1886894,"lat":48.464313886678,"lng":7.9320216178894,"bike":false,"name":"Messe","address":null,"spot":true,"number":4918,"bikes":2,"bike_racks":0,"free_racks":0,"maintenance":false,"terminal_type":"traffic_sign","bike_numbers":"31704,31640","bike_types":{"15":2}}]},{"uid":158,"lat":52.3997,"lng":13.0676,"zoom":13,"maps_icon":null,"alias":"potsdam","break":false,"name":"Potsdam","num_places":"37","refresh_rate":"1764","bounds":{"south_west":{"lat":52.3117,"lng":12.9297},"north_east":{"lat":52.4159,"lng":13.1414}},"booked_bikes":0,"set_point_bikes":249,"available_bikes":187,"places":[{"uid":57730,"lat":52.409009990671,"lng":12.972434163094,"bike":false,"name":"Bahnhof Golm","address":null,"spot":true,"number":5201,"bikes":3,"bike_racks":8,"free_racks":4,"maintenance":false,"terminal_type":"stele","bike_numbers":"33145,33071,33173","bike_types":{"14":3}},{"uid":57731,"lat":52.401819930254,"lng":13.010939955711,"bike":false,"name":"Neues Palais \/ Universit\u00e4t","address":null,"spot":true,"number":5202,"bikes":0,"bike_racks":10,"free_racks":5,"maintenance":false,"terminal_type":"stele","bike_numbers":null,"bike_types":null},{"uid":57733,"lat":52.392887176391,"lng":13.036608695984,"bike":false,"name":"Bahnhof Charlottenhof","address":null,"spot":true,"number":5203,"bikes":0,"bike_racks":6,"free_racks":5,"maintenance":false,"terminal_type":"stele","bike_numbers":null,"bike_types":null},{"uid":57734,"lat":52.413843068523,"lng":13.032569289207,"bike":false,"name":"Kirschallee \/ Pappelallee","address":null,"spot":true,"number":5204,"bikes":5,"bike_racks":12,"free_racks":0,"maintenance":false,"terminal_type":"stele","bike_numbers":"33129,33128,33109,33079,33072","bike_types":{"14":5,"4":1}},{"uid":57741,"lat":52.41586187516,"lng":13.041211366653,"bike":false,"name":"Volkspark S\u00fcd","address":null,"spot":true,"number":5205,"bikes":5,"bike_racks":8,"free_racks":1,"maintenance":false,"terminal_type":"stele","bike_numbers":"33143,33126,33116,33101,33056","bike_types":{"14":5,"4":1}},{"uid":57743,"lat":52.39689388252,"lng":13.043625354767,"bike":false,"name":"Zeppelinstra\u00dfe \/ Feuerbachstr. \/ Breite Stra\u00dfe","address":null,"spot":true,"number":5206,"bikes":5,"bike_racks":14,"free_racks":1,"maintenance":false,"terminal_type":"stele","bike_numbers":"33137,33127,33107,33100,33088","bike_types":{"14":5,"undefined":1}},{"uid":57744,"lat":52.39888400655,"lng":13.047584295273,"bike":false,"name":"Luisenplatz S\u00fcd \/ Sparkasse","address":null,"spot":true,"number":5207,"bikes":5,"bike_racks":10,"free_racks":3,"maintenance":false,"terminal_type":"stele","bike_numbers":"33091,33063,33060,33039,33035","bike_types":{"14":5,"4":1}},{"uid":57747,"lat":52.402117766672,"lng":13.052423000336,"bike":false,"name":"J\u00e4gertor \/ Lindenstr.","address":null,"spot":true,"number":5208,"bikes":5,"bike_racks":6,"free_racks":0,"maintenance":false,"terminal_type":"stele","bike_numbers":"33135,33011,33009,33180,33201","bike_types":{"14":4,"15":1,"4":1}},{"uid":57749,"lat":52.399204774721,"lng":13.052948713303,"bike":false,"name":"Dortusstra\u00dfe \/ Charlottenstra\u00dfe","address":null,"spot":true,"number":5210,"bikes":5,"bike_racks":6,"free_racks":0,"maintenance":false,"terminal_type":"stele","bike_numbers":"33095,33033,33018,33161,33212","bike_types":{"14":4,"4":2}},{"uid":57750,"lat":52.392880629188,"lng":13.066005706787,"bike":false,"name":"Hauptbahnhof Nord","address":null,"spot":true,"number":5211,"bikes":3,"bike_racks":14,"free_racks":10,"maintenance":false,"terminal_type":"stele","bike_numbers":"33121,33047,33153","bike_types":{"14":3}},{"uid":57751,"lat":52.405747281904,"lng":13.058125376701,"bike":false,"name":"Stadthaus Potsdam","address":null,"spot":true,"number":5212,"bikes":2,"bike_racks":8,"free_racks":4,"maintenance":false,"terminal_type":"stele","bike_numbers":"33097,33069","bike_types":{"14":2}},{"uid":57752,"lat":52.36602237923,"lng":13.093589544296,"bike":false,"name":"Waldstadt \/ Heinrich-Mann-Allee","address":null,"spot":true,"number":5213,"bikes":5,"bike_racks":12,"free_racks":6,"maintenance":false,"terminal_type":"stele","bike_numbers":"33125,33070,33037,33150,33235","bike_types":{"14":4,"4":2}},{"uid":57753,"lat":52.399201501588,"lng":13.057975172996,"bike":false,"name":"Platz der Einheit","address":null,"spot":true,"number":5214,"bikes":5,"bike_racks":10,"free_racks":5,"maintenance":false,"terminal_type":"stele","bike_numbers":"33055,33023,33007,33151,33228","bike_types":{"14":4,"4":1}},{"uid":57754,"lat":52.395237559551,"lng":13.058441877365,"bike":false,"name":"Filmmuseum","address":null,"spot":true,"number":5215,"bikes":5,"bike_racks":10,"free_racks":2,"maintenance":false,"terminal_type":"stele","bike_numbers":"33131,33067,33066,33044,33017","bike_types":{"14":5}},{"uid":57755,"lat":52.403806559326,"lng":13.07514667511,"bike":false,"name":"Schiffbauergasse","address":null,"spot":true,"number":5216,"bikes":5,"bike_racks":14,"free_racks":5,"maintenance":false,"terminal_type":"stele","bike_numbers":"32143,33139,33049,33048,33022","bike_types":{"14":5,"4":2}},{"uid":57756,"lat":52.390931974697,"lng":13.067122846842,"bike":false,"name":"Hauptbahnhof S\u00fcd \/ Taxistand","address":null,"spot":true,"number":5217,"bikes":5,"bike_racks":12,"free_racks":4,"maintenance":false,"terminal_type":"stele","bike_numbers":"33146,33115,33090,33041,33196","bike_types":{"14":5,"undefined":1}},{"uid":57758,"lat":52.392245545868,"lng":13.091722726822,"bike":false,"name":"Rathaus Babelsberg","address":null,"spot":true,"number":5218,"bikes":4,"bike_racks":8,"free_racks":3,"maintenance":false,"terminal_type":"stele","bike_numbers":"32044,33077,33171,33240","bike_types":{"4":2,"14":2}},{"uid":57759,"lat":52.389168208618,"lng":13.09995174408,"bike":false,"name":"Kopernikusstra\u00dfe","address":null,"spot":true,"number":5219,"bikes":5,"bike_racks":8,"free_racks":2,"maintenance":false,"terminal_type":"stele","bike_numbers":"32153,33142,33104,33032,33025","bike_types":{"undefined":1,"14":4,"4":1}},{"uid":57762,"lat":52.394288255516,"lng":13.102462291718,"bike":false,"name":"Plantagenplatz","address":null,"spot":true,"number":5220,"bikes":5,"bike_racks":8,"free_racks":1,"maintenance":false,"terminal_type":"stele","bike_numbers":"32033,33124,33103,33042,33031","bike_types":{"4":1,"14":5,"undefined":1}},{"uid":57763,"lat":52.393980545688,"lng":13.129005432129,"bike":false,"name":"Bahnhof Griebnitzsee","address":null,"spot":true,"number":5221,"bikes":5,"bike_racks":8,"free_racks":1,"maintenance":false,"terminal_type":"stele","bike_numbers":"32045,33114,33102,33001,33176","bike_types":{"4":1,"14":5}},